[
  {
    "label": "Aba North",
    "value": "Aba North",
    "state": "Abia",
    "lng": 7.401109326000039,
    "lat": 5.08194751800005
  },
  {
    "label": "Aba South",
    "value": "Aba South",
    "state": "Abia",
    "lng": 7.387494576000051,
    "lat": 5.082748007000021
  },
  {
    "label": "Arochukwu",
    "value": "Arochukwu",
    "state": "Abia",
    "lng": 7.90457888800006,
    "lat": 5.568675557000063
  },
  {
    "label": "Bende",
    "value": "Bende",
    "state": "Abia",
    "lng": 7.683954931000073,
    "lat": 5.822346219000053
  },
  {
    "label": "Ikwuano",
    "value": "Ikwuano",
    "state": "Abia",
    "lng": 7.577647052000032,
    "lat": 5.511944249000067
  },
  {
    "label": "Isiala-Ngwa North",
    "value": "Isiala-Ngwa North",
    "state": "Abia",
    "lng": 7.509688711000024,
    "lat": 5.284194858000035
  },
  {
    "label": "Isiala-Ngwa South",
    "value": "Isiala-Ngwa South",
    "state": "Abia",
    "lng": 7.507868038000026,
    "lat": 5.434589353000035
  },
  {
    "label": "Isiukwuato",
    "value": "Isiukwuato",
    "state": "Abia",
    "lng": 7.49757730400006,
    "lat": 5.907660092000071
  },
  {
    "label": "Obi Ngwa",
    "value": "Obi Ngwa",
    "state": "Abia",
    "lng": 7.535015956000052,
    "lat": 5.30381303200005
  },
  {
    "label": "Ohafia",
    "value": "Ohafia",
    "state": "Abia",
    "lng": 7.890100026000027,
    "lat": 5.684799704000056
  },
  {
    "label": "Osisioma Ngwa",
    "value": "Osisioma Ngwa",
    "state": "Abia",
    "lng": 7.38480052500006,
    "lat": 5.200843878000057
  },
  {
    "label": "Ugwunagbo",
    "value": "Ugwunagbo",
    "state": "Abia",
    "lng": 7.401109326000039,
    "lat": 5.08194751800005
  },
  {
    "label": "Ukwa East",
    "value": "Ukwa East",
    "state": "Abia",
    "lng": 7.491546117000041,
    "lat": 4.946785956000042
  },
  {
    "label": "Ukwa West",
    "value": "Ukwa West",
    "state": "Abia",
    "lng": 7.30310849500006,
    "lat": 5.075495104000026
  },
  {
    "label": "Umuahia North",
    "value": "Umuahia North",
    "state": "Abia",
    "lng": 7.46616485100003,
    "lat": 5.699527219000061
  },
  {
    "label": "Umuahia South",
    "value": "Umuahia South",
    "state": "Abia",
    "lng": 7.538756,
    "lat": 5.498257658000057
  },
  {
    "label": "Umu-Nneochi",
    "value": "Umu-Nneochi",
    "state": "Abia",
    "lng": 7.38479316400003,
    "lat": 6.037316737000026
  },
  {
    "label": "Demsa",
    "value": "Demsa",
    "state": "Adamawa",
    "lng": 12.27975578400003,
    "lat": 9.617096727000046
  },
  {
    "label": "Fufore",
    "value": "Fufore",
    "state": "Adamawa",
    "lng": 13.08482483000006,
    "lat": 9.61996864200006
  },
  {
    "label": "Ganye",
    "value": "Ganye",
    "state": "Adamawa",
    "lng": 12.274232150000046,
    "lat": 8.445372655000028
  },
  {
    "label": "Girei",
    "value": "Girei",
    "state": "Adamawa",
    "lng": 12.691948332000038,
    "lat": 9.61159219600006
  },
  {
    "label": "Gombi",
    "value": "Gombi",
    "state": "Adamawa",
    "lng": 12.612779097000043,
    "lat": 10.448620111000025
  },
  {
    "label": "Guyuk",
    "value": "Guyuk",
    "state": "Adamawa",
    "lng": 11.999241816000051,
    "lat": 10.024606748000053
  },
  {
    "label": "Hong",
    "value": "Hong",
    "state": "Adamawa",
    "lng": 12.788552645000038,
    "lat": 10.577142613000035
  },
  {
    "label": "Jada",
    "value": "Jada",
    "state": "Adamawa",
    "lng": 12.821638017000055,
    "lat": 8.94734782100005
  },
  {
    "label": "Lamurde",
    "value": "Lamurde",
    "state": "Adamawa",
    "lng": 11.946012910000036,
    "lat": 9.64976649700003
  },
  {
    "label": "Madagali",
    "value": "Madagali",
    "state": "Adamawa",
    "lng": 13.621289244000025,
    "lat": 10.948234284000023
  },
  {
    "label": "Maiha",
    "value": "Maiha",
    "state": "Adamawa",
    "lng": 13.282841502000053,
    "lat": 10.061382546000061
  },
  {
    "label": "Mayo-Belwa",
    "value": "Mayo-Belwa",
    "state": "Adamawa",
    "lng": 12.114909357000045,
    "lat": 9.24030717900007
  },
  {
    "label": "Michika",
    "value": "Michika",
    "state": "Adamawa",
    "lng": 13.349271702000067,
    "lat": 10.715725149000036
  },
  {
    "label": "Mubi North",
    "value": "Mubi North",
    "state": "Adamawa",
    "lng": 13.521256590000064,
    "lat": 10.415479075000064
  },
  {
    "label": "Mubi South",
    "value": "Mubi South",
    "state": "Adamawa",
    "lng": 13.469702374000065,
    "lat": 10.209332962000076
  },
  {
    "label": "Numan",
    "value": "Numan",
    "state": "Adamawa",
    "lng": 11.670535408000035,
    "lat": 9.253109790000053
  },
  {
    "label": "Shelleng",
    "value": "Shelleng",
    "state": "Adamawa",
    "lng": 12.233513695000056,
    "lat": 9.978627073000041
  },
  {
    "label": "Song",
    "value": "Song",
    "state": "Adamawa",
    "lng": 13.056936096000072,
    "lat": 10.02633596000004
  },
  {
    "label": "Toungo",
    "value": "Toungo",
    "state": "Adamawa",
    "lng": 12.252991034000047,
    "lat": 8.253887192000036
  },
  {
    "label": "Yola North",
    "value": "Yola North",
    "state": "Adamawa",
    "lng": 12.482119040000043,
    "lat": 9.249651234000055
  },
  {
    "label": "Yola South",
    "value": "Yola South",
    "state": "Adamawa",
    "lng": 12.292505027000061,
    "lat": 9.459261484000024
  },
  {
    "label": "Abak",
    "value": "Abak",
    "state": "Akwa Ibom",
    "lng": 7.811244428000066,
    "lat": 5.09452652300007
  },
  {
    "label": "Eket",
    "value": "Eket",
    "state": "Akwa Ibom",
    "lng": 8.022169261000045,
    "lat": 4.69251298100005
  },
  {
    "label": "Esit - Eket",
    "value": "Esit - Eket",
    "state": "Akwa Ibom",
    "lng": 8.092146095000032,
    "lat": 4.690193169000054
  },
  {
    "label": "Essien Udim",
    "value": "Essien Udim",
    "state": "Akwa Ibom",
    "lng": 7.764188617000059,
    "lat": 5.149259074000042
  },
  {
    "label": "Etim Ekpo",
    "value": "Etim Ekpo",
    "state": "Akwa Ibom",
    "lng": 7.680966636000051,
    "lat": 5.041913339000075
  },
  {
    "label": "Etinan",
    "value": "Etinan",
    "state": "Akwa Ibom",
    "lng": 7.882976732000031,
    "lat": 4.793542861000049
  },
  {
    "label": "Ibeno",
    "value": "Ibeno",
    "state": "Akwa Ibom",
    "lng": 8.241193734000035,
    "lat": 4.579414371000041
  },
  {
    "label": "Ibesikpo Asutan",
    "value": "Ibesikpo Asutan",
    "state": "Akwa Ibom",
    "lng": 7.993620744000054,
    "lat": 4.96873525500007
  },
  {
    "label": "Ibiono Ibom",
    "value": "Ibiono Ibom",
    "state": "Akwa Ibom",
    "lng": 7.880370181000046,
    "lat": 5.366795550000063
  },
  {
    "label": "Ika",
    "value": "Ika",
    "state": "Akwa Ibom",
    "lng": 7.617847719000054,
    "lat": 5.046498746000054
  },
  {
    "label": "Ikono",
    "value": "Ikono",
    "state": "Akwa Ibom",
    "lng": 7.807320319000041,
    "lat": 5.294784402000062
  },
  {
    "label": "Ikot Abasi",
    "value": "Ikot Abasi",
    "state": "Akwa Ibom",
    "lng": 7.680856257000073,
    "lat": 4.543918005000023
  },
  {
    "label": "Ikot Ekpene",
    "value": "Ikot Ekpene",
    "state": "Akwa Ibom",
    "lng": 7.764188617000059,
    "lat": 5.149259074000042
  },
  {
    "label": "Ini",
    "value": "Ini",
    "state": "Akwa Ibom",
    "lng": 7.876112163000073,
    "lat": 5.368900775000043
  },
  {
    "label": "Itu",
    "value": "Itu",
    "state": "Akwa Ibom",
    "lng": 8.069683288000022,
    "lat": 5.135974906000058
  },
  {
    "label": "Mbo",
    "value": "Mbo",
    "state": "Akwa Ibom",
    "lng": 8.206641080000054,
    "lat": 4.673179317000063
  },
  {
    "label": "Mkpat Enin",
    "value": "Mkpat Enin",
    "state": "Akwa Ibom",
    "lng": 7.807025180000039,
    "lat": 4.877768988000071
  },
  {
    "label": "Nsit Atai",
    "value": "Nsit Atai",
    "state": "Akwa Ibom",
    "lng": 8.089216227000065,
    "lat": 4.869660846000045
  },
  {
    "label": "Nsit Ibom",
    "value": "Nsit Ibom",
    "state": "Akwa Ibom",
    "lng": 7.882638178000036,
    "lat": 5.000734775000069
  },
  {
    "label": "Nsit Ubium",
    "value": "Nsit Ubium",
    "state": "Akwa Ibom",
    "lng": 7.974884854000038,
    "lat": 4.834684863000064
  },
  {
    "label": "Obot Akara",
    "value": "Obot Akara",
    "state": "Akwa Ibom",
    "lng": 7.679185346000054,
    "lat": 5.298054147000073
  },
  {
    "label": "Okobo",
    "value": "Okobo",
    "state": "Akwa Ibom",
    "lng": 8.24028127500003,
    "lat": 4.854086426000038
  },
  {
    "label": "Onna",
    "value": "Onna",
    "state": "Akwa Ibom",
    "lng": 7.884353166000039,
    "lat": 4.72115315800005
  },
  {
    "label": "Oron",
    "value": "Oron",
    "state": "Akwa Ibom",
    "lng": 8.266182910000055,
    "lat": 4.835324752000076
  },
  {
    "label": "Oruk Anam",
    "value": "Oruk Anam",
    "state": "Akwa Ibom",
    "lng": 7.794308191000027,
    "lat": 4.888054845000056
  },
  {
    "label": "Udung Uko",
    "value": "Udung Uko",
    "state": "Akwa Ibom",
    "lng": 8.303631129000053,
    "lat": 4.733638788000064
  },
  {
    "label": "Ukanafun",
    "value": "Ukanafun",
    "state": "Akwa Ibom",
    "lng": 7.660419170000068,
    "lat": 4.938580804000026
  },
  {
    "label": "Uruan",
    "value": "Uruan",
    "state": "Akwa Ibom",
    "lng": 8.153121180000028,
    "lat": 4.938528079000037
  },
  {
    "label": "Uyo",
    "value": "Uyo",
    "state": "Akwa Ibom",
    "lng": 7.845483700000045,
    "lat": 5.031360376000066
  },
  {
    "label": "Aguata",
    "value": "Aguata",
    "state": "Anambra",
    "lng": 7.146545872000047,
    "lat": 5.988787572000035
  },
  {
    "label": "Anambra East",
    "value": "Anambra East",
    "state": "Anambra",
    "lng": 6.981354696000039,
    "lat": 6.416490493000026
  },
  {
    "label": "Anambra West",
    "value": "Anambra West",
    "state": "Anambra",
    "lng": 6.932072656000059,
    "lat": 6.767693572000042
  },
  {
    "label": "Anaocha",
    "value": "Anaocha",
    "state": "Anambra",
    "lng": 7.039525034000064,
    "lat": 6.158321351000041
  },
  {
    "label": "Awka North",
    "value": "Awka North",
    "state": "Anambra",
    "lng": 7.027468291000048,
    "lat": 6.44356334500003
  },
  {
    "label": "Awka South",
    "value": "Awka South",
    "state": "Anambra",
    "lng": 7.147720337000067,
    "lat": 6.242456490000052
  },
  {
    "label": "Ayamelum",
    "value": "Ayamelum",
    "state": "Anambra",
    "lng": 7.049659200000065,
    "lat": 6.474356678000049
  },
  {
    "label": "Dunukofia",
    "value": "Dunukofia",
    "state": "Anambra",
    "lng": 7.008407840000075,
    "lat": 6.255470384000034
  },
  {
    "label": "Ekwusigo",
    "value": "Ekwusigo",
    "state": "Anambra",
    "lng": 6.89672089000004,
    "lat": 6.073711830000036
  },
  {
    "label": "Idemili North",
    "value": "Idemili North",
    "state": "Anambra",
    "lng": 6.908619386000055,
    "lat": 6.170329995000031
  },
  {
    "label": "Idemili South",
    "value": "Idemili South",
    "state": "Anambra",
    "lng": 6.980727920000049,
    "lat": 6.091601921000063
  },
  {
    "label": "Ihiala",
    "value": "Ihiala",
    "state": "Anambra",
    "lng": 6.880967411000029,
    "lat": 5.912396369000021
  },
  {
    "label": "Njikoka",
    "value": "Njikoka",
    "state": "Anambra",
    "lng": 7.018863337000028,
    "lat": 6.238191193000034
  },
  {
    "label": "Nnewi North",
    "value": "Nnewi North",
    "state": "Anambra",
    "lng": 6.952607005000061,
    "lat": 6.020284772000025
  },
  {
    "label": "Nnewi South",
    "value": "Nnewi South",
    "state": "Anambra",
    "lng": 7.056444716000044,
    "lat": 5.930613533000042
  },
  {
    "label": "Ogbaru",
    "value": "Ogbaru",
    "state": "Anambra",
    "lng": 6.795126416000073,
    "lat": 6.12913179700007
  },
  {
    "label": "Onitsha North",
    "value": "Onitsha North",
    "state": "Anambra",
    "lng": 6.835141213000043,
    "lat": 6.182289619000073
  },
  {
    "label": "Onitsha South",
    "value": "Onitsha South",
    "state": "Anambra",
    "lng": 6.787640690000046,
    "lat": 6.129641019000076
  },
  {
    "label": "Orumba North",
    "value": "Orumba North",
    "state": "Anambra",
    "lng": 7.27310662900004,
    "lat": 6.057219036000049
  },
  {
    "label": "Orumba South",
    "value": "Orumba South",
    "state": "Anambra",
    "lng": 7.339062708000029,
    "lat": 6.042149551000023
  },
  {
    "label": "Oyi",
    "value": "Oyi",
    "state": "Anambra",
    "lng": 6.959427840000046,
    "lat": 6.275431248000075
  },
  {
    "label": "Alkaleri",
    "value": "Alkaleri",
    "state": "Bauchi",
    "lng": 10.831428979000066,
    "lat": 10.198451128000045
  },
  {
    "label": "Bauchi",
    "value": "Bauchi",
    "state": "Bauchi",
    "lng": 10.214344479000033,
    "lat": 10.478918019000048
  },
  {
    "label": "Bogoro",
    "value": "Bogoro",
    "state": "Bauchi",
    "lng": 9.796740686000021,
    "lat": 9.571181239000055
  },
  {
    "label": "Damban",
    "value": "Damban",
    "state": "Bauchi",
    "lng": 10.929660099000046,
    "lat": 11.516030365000063
  },
  {
    "label": "Darazo",
    "value": "Darazo",
    "state": "Bauchi",
    "lng": 10.92981746700002,
    "lat": 11.44328570700003
  },
  {
    "label": "Dass",
    "value": "Dass",
    "state": "Bauchi",
    "lng": 9.352772618000074,
    "lat": 9.87659711300006
  },
  {
    "label": "Gamawa",
    "value": "Gamawa",
    "state": "Bauchi",
    "lng": 10.759832844000073,
    "lat": 12.36964935800006
  },
  {
    "label": "Ganjuwa",
    "value": "Ganjuwa",
    "state": "Bauchi",
    "lng": 10.228605266000045,
    "lat": 11.10078989300007
  },
  {
    "label": "Giade",
    "value": "Giade",
    "state": "Bauchi",
    "lng": 10.356260066000061,
    "lat": 11.510061818000054
  },
  {
    "label": "Katagum",
    "value": "Katagum",
    "state": "Bauchi",
    "lng": 10.588509224000063,
    "lat": 11.678338427000028
  },
  {
    "label": "Kirfi",
    "value": "Kirfi",
    "state": "Bauchi",
    "lng": 10.835072661000027,
    "lat": 10.395102730000076
  },
  {
    "label": "Misau",
    "value": "Misau",
    "state": "Bauchi",
    "lng": 10.717442714000072,
    "lat": 11.44590813900004
  },
  {
    "label": "Ningi",
    "value": "Ningi",
    "state": "Bauchi",
    "lng": 9.624977827000066,
    "lat": 11.252455886000064
  },
  {
    "label": "Shira",
    "value": "Shira",
    "state": "Bauchi",
    "lng": 10.182092975000046,
    "lat": 11.55178511500003
  },
  {
    "label": "Tafawa-Balewa",
    "value": "Tafawa-Balewa",
    "state": "Bauchi",
    "lng": 9.64216830600003,
    "lat": 10.233016790000022
  },
  {
    "label": "Toro",
    "value": "Toro",
    "state": "Bauchi",
    "lng": 9.607861823000064,
    "lat": 10.589420096000026
  },
  {
    "label": "Warji",
    "value": "Warji",
    "state": "Bauchi",
    "lng": 9.854277265000064,
    "lat": 11.049585979000028
  },
  {
    "label": "Zaki",
    "value": "Zaki",
    "state": "Bauchi",
    "lng": 10.759832844000073,
    "lat": 12.36964935800006
  },
  {
    "label": "Brass",
    "value": "Brass",
    "state": "Bayelsa",
    "lng": 6.276072025000076,
    "lat": 4.375934121000057
  },
  {
    "label": "Ekeremor",
    "value": "Ekeremor",
    "state": "Bayelsa",
    "lng": 5.974926594000067,
    "lat": 5.137524633000055
  },
  {
    "label": "Nembe",
    "value": "Nembe",
    "state": "Bayelsa",
    "lng": 6.568485950000024,
    "lat": 4.737030097000059
  },
  {
    "label": "Ogbia",
    "value": "Ogbia",
    "state": "Bayelsa",
    "lng": 6.398606663000066,
    "lat": 4.851465241000028
  },
  {
    "label": "Sagbama",
    "value": "Sagbama",
    "state": "Bayelsa",
    "lng": 6.530881853000039,
    "lat": 5.284537818000047
  },
  {
    "label": "Southern Ijaw",
    "value": "Southern Ijaw",
    "state": "Bayelsa",
    "lng": 6.12523002100005,
    "lat": 4.993736942000055
  },
  {
    "label": "Yenegoa",
    "value": "Yenegoa",
    "state": "Bayelsa",
    "lng": 6.555801570000028,
    "lat": 5.202908291000028
  },
  {
    "label": "Ado",
    "value": "Ado",
    "state": "Benue",
    "lng": 8.10217592600003,
    "lat": 6.988883857000076
  },
  {
    "label": "Agatu",
    "value": "Agatu",
    "state": "Benue",
    "lng": 8.062916116000054,
    "lat": 7.926988813000037
  },
  {
    "label": "Apa",
    "value": "Apa",
    "state": "Benue",
    "lng": 8.065361624000047,
    "lat": 7.732620590000067
  },
  {
    "label": "Buruku",
    "value": "Buruku",
    "state": "Benue",
    "lng": 9.043637488000059,
    "lat": 7.601304508000055
  },
  {
    "label": "Gboko",
    "value": "Gboko",
    "state": "Benue",
    "lng": 8.937168797000027,
    "lat": 7.513230573000044
  },
  {
    "label": "Guma",
    "value": "Guma",
    "state": "Benue",
    "lng": 9.056972797000071,
    "lat": 8.07764538400005
  },
  {
    "label": "Gwer East",
    "value": "Gwer East",
    "state": "Benue",
    "lng": 8.744454363000045,
    "lat": 7.692774425000039
  },
  {
    "label": "Gwer West",
    "value": "Gwer West",
    "state": "Benue",
    "lng": 8.372159140000065,
    "lat": 7.770002370000043
  },
  {
    "label": "Katsina-Ala",
    "value": "Katsina-Ala",
    "state": "Benue",
    "lng": 9.905205686000045,
    "lat": 7.607648196000071
  },
  {
    "label": "Konshisha",
    "value": "Konshisha",
    "state": "Benue",
    "lng": 8.75031939400003,
    "lat": 7.14443678400005
  },
  {
    "label": "Kwande",
    "value": "Kwande",
    "state": "Benue",
    "lng": 9.731563404000042,
    "lat": 7.066891503000022
  },
  {
    "label": "Logo",
    "value": "Logo",
    "state": "Benue",
    "lng": 9.397112453000034,
    "lat": 7.844736357000045
  },
  {
    "label": "Makurdi",
    "value": "Makurdi",
    "state": "Benue",
    "lng": 8.66053963500002,
    "lat": 7.703127727000037
  },
  {
    "label": "Obi",
    "value": "Obi",
    "state": "Benue",
    "lng": 9.008576169000037,
    "lat": 8.400404026000047
  },
  {
    "label": "Ogbadibo",
    "value": "Ogbadibo",
    "state": "Benue",
    "lng": 7.776001764000057,
    "lat": 6.875904981000076
  },
  {
    "label": "Ohimini",
    "value": "Ohimini",
    "state": "Benue",
    "lng": 8.001581263000048,
    "lat": 7.130193962000021
  },
  {
    "label": "Oju",
    "value": "Oju",
    "state": "Benue",
    "lng": 8.438525218000052,
    "lat": 7.046871261000035
  },
  {
    "label": "Okpokwu",
    "value": "Okpokwu",
    "state": "Benue",
    "lng": 8.001581263000048,
    "lat": 7.130193962000021
  },
  {
    "label": "Oturkpo",
    "value": "Oturkpo",
    "state": "Benue",
    "lng": 8.13474166900005,
    "lat": 7.374030207000033
  },
  {
    "label": "Tarka",
    "value": "Tarka",
    "state": "Benue",
    "lng": 8.961255897000058,
    "lat": 7.687292486000047
  },
  {
    "label": "Ukum",
    "value": "Ukum",
    "state": "Benue",
    "lng": 9.863546855000038,
    "lat": 7.686014207000028
  },
  {
    "label": "Ushongo",
    "value": "Ushongo",
    "state": "Benue",
    "lng": 9.069430695000051,
    "lat": 7.209214386000042
  },
  {
    "label": "Vandeikya",
    "value": "Vandeikya",
    "state": "Benue",
    "lng": 9.206760177000035,
    "lat": 6.929075674000046
  },
  {
    "label": "Bama",
    "value": "Bama",
    "state": "Borno",
    "lng": 14.312129955000046,
    "lat": 11.842729562000045
  },
  {
    "label": "Bayo",
    "value": "Bayo",
    "state": "Borno",
    "lng": 11.79627977000007,
    "lat": 10.611069762000056
  },
  {
    "label": "Biu",
    "value": "Biu",
    "state": "Borno",
    "lng": 12.190429708000067,
    "lat": 11.05123977200003
  },
  {
    "label": "Chibok",
    "value": "Chibok",
    "state": "Borno",
    "lng": 12.828282541000021,
    "lat": 10.963549901000022
  },
  {
    "label": "Damboa",
    "value": "Damboa",
    "state": "Borno",
    "lng": 12.602892032000057,
    "lat": 11.241804559000059
  },
  {
    "label": "Gubio",
    "value": "Gubio",
    "state": "Borno",
    "lng": 12.940149895000047,
    "lat": 12.805620247000036
  },
  {
    "label": "Hawul",
    "value": "Hawul",
    "state": "Borno",
    "lng": 12.124335765000069,
    "lat": 10.58708521400007
  },
  {
    "label": "Jere",
    "value": "Jere",
    "state": "Borno",
    "lng": 13.289719584000068,
    "lat": 11.928749818000028
  },
  {
    "label": "Kaga",
    "value": "Kaga",
    "state": "Borno",
    "lng": 12.302820714000063,
    "lat": 11.930319978000057
  },
  {
    "label": "Kwaya Kusar",
    "value": "Kwaya Kusar",
    "state": "Borno",
    "lng": 11.810179580000067,
    "lat": 10.614800719000073
  },
  {
    "label": "Mafa",
    "value": "Mafa",
    "state": "Borno",
    "lng": 13.298710239000059,
    "lat": 12.309490099000072
  },
  {
    "label": "Maiduguri",
    "value": "Maiduguri",
    "state": "Borno",
    "lng": 13.165055736000056,
    "lat": 11.856036199000073
  },
  {
    "label": "Monguno",
    "value": "Monguno",
    "state": "Borno",
    "lng": 14.139640197000062,
    "lat": 12.792590173000065
  },
  {
    "label": "Shani",
    "value": "Shani",
    "state": "Borno",
    "lng": 11.996312500000045,
    "lat": 10.359222841000076
  },
  {
    "label": "Akamkpa",
    "value": "Akamkpa",
    "state": "Cross River",
    "lng": 8.480934287000025,
    "lat": 5.761620968000045
  },
  {
    "label": "Akpabuyo",
    "value": "Akpabuyo",
    "state": "Cross River",
    "lng": 8.693478758000026,
    "lat": 4.995327
  },
  {
    "label": "Bakassi",
    "value": "Bakassi",
    "state": "Cross River",
    "lng": 8.560679695000033,
    "lat": 4.798473349000062
  },
  {
    "label": "Bekwara",
    "value": "Bekwara",
    "state": "Cross River",
    "lng": 8.942987463000065,
    "lat": 6.810498690000031
  },
  {
    "label": "Biase",
    "value": "Biase",
    "state": "Cross River",
    "lng": 8.049611,
    "lat": 5.799735080000062
  },
  {
    "label": "Boki",
    "value": "Boki",
    "state": "Cross River",
    "lng": 8.956610107000074,
    "lat": 6.50864217000003
  },
  {
    "label": "Calabar-Municipal",
    "value": "Calabar-Municipal",
    "state": "Cross River",
    "lng": 8.400836104000064,
    "lat": 5.092072990000077
  },
  {
    "label": "Calabar South",
    "value": "Calabar South",
    "state": "Cross River",
    "lng": 8.355756521000046,
    "lat": 4.939916175000064
  },
  {
    "label": "Etung",
    "value": "Etung",
    "state": "Cross River",
    "lng": 8.989945219000049,
    "lat": 5.951848958000028
  },
  {
    "label": "Ikom",
    "value": "Ikom",
    "state": "Cross River",
    "lng": 8.857259889000034,
    "lat": 6.05953590200005
  },
  {
    "label": "Obanliku",
    "value": "Obanliku",
    "state": "Cross River",
    "lng": 9.465628632000062,
    "lat": 6.455608316000053
  },
  {
    "label": "Obubra",
    "value": "Obubra",
    "state": "Cross River",
    "lng": 8.473115204000067,
    "lat": 6.284353217000046
  },
  {
    "label": "Obudu",
    "value": "Obudu",
    "state": "Cross River",
    "lng": 9.16819703300007,
    "lat": 6.686731710000061
  },
  {
    "label": "Odukpani",
    "value": "Odukpani",
    "state": "Cross River",
    "lng": 8.139670435000028,
    "lat": 5.287423078000074
  },
  {
    "label": "Ogoja",
    "value": "Ogoja",
    "state": "Cross River",
    "lng": 8.972255480000058,
    "lat": 6.643128903000047
  },
  {
    "label": "Abi",
    "value": "Abi",
    "state": "Cross River",
    "lng": 8.153281890000073,
    "lat": 5.967316194000034
  },
  {
    "label": "Yakurr",
    "value": "Yakurr",
    "state": "Cross River",
    "lng": 8.338215140000045,
    "lat": 5.742806980000069
  },
  {
    "label": "Yala",
    "value": "Yala",
    "state": "Cross River",
    "lng": 8.929426368000065,
    "lat": 6.820408795000048
  },
  {
    "label": "Aniocha North",
    "value": "Aniocha North",
    "state": "Delta",
    "lng": 6.575679900000068,
    "lat": 6.298266255000044
  },
  {
    "label": "Bomadi",
    "value": "Bomadi",
    "state": "Delta",
    "lng": 5.742336272000045,
    "lat": 5.268263768000054
  },
  {
    "label": "Burutu",
    "value": "Burutu",
    "state": "Delta",
    "lng": 5.707898982000074,
    "lat": 5.410940856000025
  },
  {
    "label": "Ethiope East",
    "value": "Ethiope East",
    "state": "Delta",
    "lng": 6.162654908000036,
    "lat": 5.740603924000027
  },
  {
    "label": "Ethiope West",
    "value": "Ethiope West",
    "state": "Delta",
    "lng": 5.76417742700005,
    "lat": 5.99781418200007
  },
  {
    "label": "Ika North East",
    "value": "Ika North East",
    "state": "Delta",
    "lng": 6.375341957000046,
    "lat": 6.239600143000075
  },
  {
    "label": "Ika South",
    "value": "Ika South",
    "state": "Delta",
    "lng": 6.24664413000005,
    "lat": 6.312650205000068
  },
  {
    "label": "Isoko North",
    "value": "Isoko North",
    "state": "Delta",
    "lng": 6.347042042000055,
    "lat": 5.448467248000043
  },
  {
    "label": "Isoko South",
    "value": "Isoko South",
    "state": "Delta",
    "lng": 6.347042042000055,
    "lat": 5.448467248000043
  },
  {
    "label": "Ndokwa West",
    "value": "Ndokwa West",
    "state": "Delta",
    "lng": 6.479153281000038,
    "lat": 5.985262885000054
  },
  {
    "label": "Okpe",
    "value": "Okpe",
    "state": "Delta",
    "lng": 5.894185192000066,
    "lat": 5.798591796000039
  },
  {
    "label": "Oshimili North",
    "value": "Oshimili North",
    "state": "Delta",
    "lng": 6.725022284000033,
    "lat": 6.265763216000039
  },
  {
    "label": "Oshimili South",
    "value": "Oshimili South",
    "state": "Delta",
    "lng": 6.762889290000032,
    "lat": 6.185385698000061
  },
  {
    "label": "Patani",
    "value": "Patani",
    "state": "Delta",
    "lng": 5.980889411000021,
    "lat": 5.130557515000021
  },
  {
    "label": "Sapele",
    "value": "Sapele",
    "state": "Delta",
    "lng": 5.774864489000038,
    "lat": 5.824809039000058
  },
  {
    "label": "Udu",
    "value": "Udu",
    "state": "Delta",
    "lng": 5.819704448000039,
    "lat": 5.539459243000067
  },
  {
    "label": "Ughelli North",
    "value": "Ughelli North",
    "state": "Delta",
    "lng": 6.162654908000036,
    "lat": 5.740603924000027
  },
  {
    "label": "Ughelli South",
    "value": "Ughelli South",
    "state": "Delta",
    "lng": 5.850398153000071,
    "lat": 5.556378291000044
  },
  {
    "label": "Ukwuani",
    "value": "Ukwuani",
    "state": "Delta",
    "lng": 6.166832493000072,
    "lat": 5.726475753000045
  },
  {
    "label": "Uvwie",
    "value": "Uvwie",
    "state": "Delta",
    "lng": 5.846122667000031,
    "lat": 5.587284734000036
  },
  {
    "label": "Warri South",
    "value": "Warri South",
    "state": "Delta",
    "lng": 5.552169883000033,
    "lat": 5.851335986000038
  },
  {
    "label": "Warri South West",
    "value": "Warri South West",
    "state": "Delta",
    "lng": 5.493133190000037,
    "lat": 5.829592204000051
  },
  {
    "label": "Abakaliki",
    "value": "Abakaliki",
    "state": "Ebonyi",
    "lng": 8.410900010000034,
    "lat": 6.28211638700003
  },
  {
    "label": "Afikpo North",
    "value": "Afikpo North",
    "state": "Ebonyi",
    "lng": 7.979246886000055,
    "lat": 5.970290144000046
  },
  {
    "label": "Afikpo South",
    "value": "Afikpo South",
    "state": "Ebonyi",
    "lng": 7.868016045000047,
    "lat": 5.951814142000046
  },
  {
    "label": "Ebonyi",
    "value": "Ebonyi",
    "state": "Ebonyi",
    "lng": 8.24130664300003,
    "lat": 6.791225955000073
  },
  {
    "label": "Ezza North",
    "value": "Ezza North",
    "state": "Ebonyi",
    "lng": 8.027935211000056,
    "lat": 6.355568927000036
  },
  {
    "label": "Ezza South",
    "value": "Ezza South",
    "state": "Ebonyi",
    "lng": 8.121980811000071,
    "lat": 6.184223148000058
  },
  {
    "label": "Ikwo",
    "value": "Ikwo",
    "state": "Ebonyi",
    "lng": 8.330331127000022,
    "lat": 6.189924881000024
  },
  {
    "label": "Ishielu",
    "value": "Ishielu",
    "state": "Ebonyi",
    "lng": 7.871888456000022,
    "lat": 6.566683864000026
  },
  {
    "label": "Ivo",
    "value": "Ivo",
    "state": "Ebonyi",
    "lng": 7.691889462000063,
    "lat": 5.92464016200006
  },
  {
    "label": "Izzi",
    "value": "Izzi",
    "state": "Ebonyi",
    "lng": 8.294514797000033,
    "lat": 6.678708960000051
  },
  {
    "label": "Ohaozara",
    "value": "Ohaozara",
    "state": "Ebonyi",
    "lng": 7.926255418000039,
    "lat": 5.973769724000022
  },
  {
    "label": "Ohaukwu",
    "value": "Ohaukwu",
    "state": "Ebonyi",
    "lng": 8.079565762000072,
    "lat": 6.713152040000068
  },
  {
    "label": "Onicha",
    "value": "Onicha",
    "state": "Ebonyi",
    "lng": 7.882315901000027,
    "lat": 6.184412508000037
  },
  {
    "label": "Akoko-Edo",
    "value": "Akoko-Edo",
    "state": "Edo",
    "lng": 6.126644027000054,
    "lat": 7.572976230000052
  },
  {
    "label": "Egor",
    "value": "Egor",
    "state": "Edo",
    "lng": 5.644552795000038,
    "lat": 6.374224009000045
  },
  {
    "label": "Esan Central",
    "value": "Esan Central",
    "state": "Edo",
    "lng": 6.400554736000061,
    "lat": 6.813662587000067
  },
  {
    "label": "Esan North East",
    "value": "Esan North East",
    "state": "Edo",
    "lng": 6.530869945000063,
    "lat": 6.793375991000062
  },
  {
    "label": "Esan South East",
    "value": "Esan South East",
    "state": "Edo",
    "lng": 6.530869945000063,
    "lat": 6.793375991000062
  },
  {
    "label": "Esan West",
    "value": "Esan West",
    "state": "Edo",
    "lng": 6.250658026000053,
    "lat": 6.83628688500005
  },
  {
    "label": "Etsako Central",
    "value": "Etsako Central",
    "state": "Edo",
    "lng": 6.679260241000065,
    "lat": 6.972002420000024
  },
  {
    "label": "Etsako East",
    "value": "Etsako East",
    "state": "Edo",
    "lng": 6.485763157000065,
    "lat": 7.341996211000037
  },
  {
    "label": "Etsako West",
    "value": "Etsako West",
    "state": "Edo",
    "lng": 6.414650889000029,
    "lat": 7.166708031000042
  },
  {
    "label": "Igueben",
    "value": "Igueben",
    "state": "Edo",
    "lng": 6.28161628600003,
    "lat": 6.360329195000077
  },
  {
    "label": "Ikpoba-Okha",
    "value": "Ikpoba-Okha",
    "state": "Edo",
    "lng": 5.827546171000051,
    "lat": 6.252757140000028
  },
  {
    "label": "Oredo",
    "value": "Oredo",
    "state": "Edo",
    "lng": 5.462244918000067,
    "lat": 6.099954144000037
  },
  {
    "label": "Orhionmwon",
    "value": "Orhionmwon",
    "state": "Edo",
    "lng": 6.28161628600003,
    "lat": 6.360329195000077
  },
  {
    "label": "Ovia North East",
    "value": "Ovia North East",
    "state": "Edo",
    "lng": 5.537059795000062,
    "lat": 6.884796622000067
  },
  {
    "label": "Ovia South West",
    "value": "Ovia South West",
    "state": "Edo",
    "lng": 5.459748756000067,
    "lat": 6.885983013000043
  },
  {
    "label": "Owan East",
    "value": "Owan East",
    "state": "Edo",
    "lng": 6.180317962000061,
    "lat": 7.11275824300003
  },
  {
    "label": "Owan West",
    "value": "Owan West",
    "state": "Edo",
    "lng": 6.046033806000025,
    "lat": 6.776315171000022
  },
  {
    "label": "Uhunmwonde",
    "value": "Uhunmwonde",
    "state": "Edo",
    "lng": 6.013270976000058,
    "lat": 6.773068862000059
  },
  {
    "label": "Ado Ekiti",
    "value": "Ado Ekiti",
    "state": "Ekiti",
    "lng": 5.378311996000036,
    "lat": 7.665960220000045
  },
  {
    "label": "Efon",
    "value": "Efon",
    "state": "Ekiti",
    "lng": 4.906387404000043,
    "lat": 7.562844340000026
  },
  {
    "label": "Ekiti East",
    "value": "Ekiti East",
    "state": "Ekiti",
    "lng": 5.738130657000056,
    "lat": 7.819180466000034
  },
  {
    "label": "Ekiti South West",
    "value": "Ekiti South West",
    "state": "Ekiti",
    "lng": 5.106438580000031,
    "lat": 7.622524842000075
  },
  {
    "label": "Ekiti West",
    "value": "Ekiti West",
    "state": "Ekiti",
    "lng": 5.113748672000042,
    "lat": 7.693432881000035
  },
  {
    "label": "Emure",
    "value": "Emure",
    "state": "Ekiti",
    "lng": 5.609946444000059,
    "lat": 7.485031837000065
  },
  {
    "label": "Ido-Osi",
    "value": "Ido-Osi",
    "state": "Ekiti",
    "lng": 5.164706863000049,
    "lat": 7.938229564000039
  },
  {
    "label": "Ijero",
    "value": "Ijero",
    "state": "Ekiti",
    "lng": 5.094156157000043,
    "lat": 7.922412309000038
  },
  {
    "label": "Ikere",
    "value": "Ikere",
    "state": "Ekiti",
    "lng": 5.313019287000031,
    "lat": 7.543030609000027
  },
  {
    "label": "Ikole",
    "value": "Ikole",
    "state": "Ekiti",
    "lng": 5.643636244000049,
    "lat": 8.073968050000076
  },
  {
    "label": "Ilejemeji",
    "value": "Ilejemeji",
    "state": "Ekiti",
    "lng": 5.282862325000053,
    "lat": 8.00847142300006
  },
  {
    "label": "Moba",
    "value": "Moba",
    "state": "Ekiti",
    "lng": 5.162611575000028,
    "lat": 8.04950621100005
  },
  {
    "label": "Oye",
    "value": "Oye",
    "state": "Ekiti",
    "lng": 5.387426252000068,
    "lat": 7.723801066000021
  },
  {
    "label": "Aninri",
    "value": "Aninri",
    "state": "Enugu",
    "lng": 7.668315227000051,
    "lat": 6.060618839000028
  },
  {
    "label": "Awgu",
    "value": "Awgu",
    "state": "Enugu",
    "lng": 7.512400503000038,
    "lat": 6.231348006000076
  },
  {
    "label": "Enugu East",
    "value": "Enugu East",
    "state": "Enugu",
    "lng": 7.653496555000061,
    "lat": 6.601598248000073
  },
  {
    "label": "Enugu North",
    "value": "Enugu North",
    "state": "Enugu",
    "lng": 7.630680097000038,
    "lat": 6.448190685000043
  },
  {
    "label": "Enugu South",
    "value": "Enugu South",
    "state": "Enugu",
    "lng": 7.581700372000057,
    "lat": 6.397293716000036
  },
  {
    "label": "Ezeagu",
    "value": "Ezeagu",
    "state": "Enugu",
    "lng": 7.245460927000067,
    "lat": 6.275623299000074
  },
  {
    "label": "Igbo-Etiti",
    "value": "Igbo-Etiti",
    "state": "Enugu",
    "lng": 7.510490057000027,
    "lat": 6.72917546900004
  },
  {
    "label": "Igbo-Eze North",
    "value": "Igbo-Eze North",
    "state": "Enugu",
    "lng": 7.530513945000052,
    "lat": 7.032278044000066
  },
  {
    "label": "Igbo-Eze South",
    "value": "Igbo-Eze South",
    "state": "Enugu",
    "lng": 7.489934712000036,
    "lat": 6.920552744000076
  },
  {
    "label": "Isi-Uzo",
    "value": "Isi-Uzo",
    "state": "Enugu",
    "lng": 7.89665946100007,
    "lat": 6.863931555000022
  },
  {
    "label": "Nkanu East",
    "value": "Nkanu East",
    "state": "Enugu",
    "lng": 7.725004742000067,
    "lat": 6.242600913000047
  },
  {
    "label": "Nkanu West",
    "value": "Nkanu West",
    "state": "Enugu",
    "lng": 7.618824620000055,
    "lat": 6.419865370000025
  },
  {
    "label": "Nsukka",
    "value": "Nsukka",
    "state": "Enugu",
    "lng": 7.31299395800005,
    "lat": 6.999724358000037
  },
  {
    "label": "Oji-River",
    "value": "Oji-River",
    "state": "Enugu",
    "lng": 7.245460927000067,
    "lat": 6.275623299000074
  },
  {
    "label": "Udenu",
    "value": "Udenu",
    "state": "Enugu",
    "lng": 7.692280065000034,
    "lat": 6.851824278000038
  },
  {
    "label": "Udi",
    "value": "Udi",
    "state": "Enugu",
    "lng": 7.459235576000026,
    "lat": 6.616877155000054
  },
  {
    "label": "Uzo-Uwani",
    "value": "Uzo-Uwani",
    "state": "Enugu",
    "lng": 7.332398964000049,
    "lat": 6.724825875000022
  },
  {
    "label": "Abaji",
    "value": "Abaji",
    "state": "Federal Capital Territory",
    "lng": 7.045871656000031,
    "lat": 9.230500929000073
  },
  {
    "label": "Bwari",
    "value": "Bwari",
    "state": "Federal Capital Territory",
    "lng": 7.729873720000057,
    "lat": 9.331881549000059
  },
  {
    "label": "Gwagwalada",
    "value": "Gwagwalada",
    "state": "Federal Capital Territory",
    "lng": 7.156177129000071,
    "lat": 9.146846621000066
  },
  {
    "label": "Kuje",
    "value": "Kuje",
    "state": "Federal Capital Territory",
    "lng": 7.477623738000034,
    "lat": 8.631333444000063
  },
  {
    "label": "Kwali",
    "value": "Kwali",
    "state": "Federal Capital Territory",
    "lng": 7.095544385000039,
    "lat": 8.916612318000034
  },
  {
    "label": "Abuja Municipal",
    "value": "Abuja Municipal",
    "state": "Federal Capital Territory",
    "lng": 7.306005901000049,
    "lat": 9.140310486000033
  },
  {
    "label": "Akko",
    "value": "Akko",
    "state": "Gombe",
    "lng": 10.885161294000056,
    "lat": 10.398648747000038
  },
  {
    "label": "Balanga",
    "value": "Balanga",
    "state": "Gombe",
    "lng": 11.828603850000036,
    "lat": 10.05387802000007
  },
  {
    "label": "Billiri",
    "value": "Billiri",
    "state": "Gombe",
    "lng": 11.274492421000048,
    "lat": 10.002017186000046
  },
  {
    "label": "Dukku",
    "value": "Dukku",
    "state": "Gombe",
    "lng": 11.10219954300004,
    "lat": 10.903690614000027
  },
  {
    "label": "Funakaye",
    "value": "Funakaye",
    "state": "Gombe",
    "lng": 11.400138878000064,
    "lat": 11.089087412000026
  },
  {
    "label": "Gombe",
    "value": "Gombe",
    "state": "Gombe",
    "lng": 11.164293734000069,
    "lat": 10.320766820000074
  },
  {
    "label": "Kaltungo",
    "value": "Kaltungo",
    "state": "Gombe",
    "lng": 11.538898545000052,
    "lat": 10.01885928300004
  },
  {
    "label": "Kwami",
    "value": "Kwami",
    "state": "Gombe",
    "lng": 11.51474842600004,
    "lat": 10.612222664000058
  },
  {
    "label": "Nafada",
    "value": "Nafada",
    "state": "Gombe",
    "lng": 11.400138878000064,
    "lat": 11.089087412000026
  },
  {
    "label": "Shomgom",
    "value": "Shomgom",
    "state": "Gombe",
    "lng": 11.379238862000022,
    "lat": 9.623203257000057
  },
  {
    "label": "Aboh-Mbaise",
    "value": "Aboh-Mbaise",
    "state": "Imo",
    "lng": 7.321908546000031,
    "lat": 5.404929589000062
  },
  {
    "label": "Ahiazu-Mbaise",
    "value": "Ahiazu-Mbaise",
    "state": "Imo",
    "lng": 7.308937683000067,
    "lat": 5.617926096000076
  },
  {
    "label": "Ehime-Mbano",
    "value": "Ehime-Mbano",
    "state": "Imo",
    "lng": 7.361155975000031,
    "lat": 5.71431162600004
  },
  {
    "label": "Ezinihitte",
    "value": "Ezinihitte",
    "state": "Imo",
    "lng": 7.388032556000041,
    "lat": 5.510386898000036
  },
  {
    "label": "Ideato North",
    "value": "Ideato North",
    "state": "Imo",
    "lng": 7.202844695000067,
    "lat": 5.920961891000047
  },
  {
    "label": "Ideato South",
    "value": "Ideato South",
    "state": "Imo",
    "lng": 7.178212457000029,
    "lat": 5.808308796000063
  },
  {
    "label": "Ikeduru",
    "value": "Ikeduru",
    "state": "Imo",
    "lng": 7.209131610000043,
    "lat": 5.607380341000066
  },
  {
    "label": "Isiala Mbano",
    "value": "Isiala Mbano",
    "state": "Imo",
    "lng": 7.265981402000023,
    "lat": 5.744175169000073
  },
  {
    "label": "Isu",
    "value": "Isu",
    "state": "Imo",
    "lng": 7.09106203500005,
    "lat": 5.722291957000039
  },
  {
    "label": "Mbaitoli",
    "value": "Mbaitoli",
    "state": "Imo",
    "lng": 7.122473998000032,
    "lat": 5.625685950000047
  },
  {
    "label": "Ngor-Okpala",
    "value": "Ngor-Okpala",
    "state": "Imo",
    "lng": 7.291588828000044,
    "lat": 5.319604876000028
  },
  {
    "label": "Njaba",
    "value": "Njaba",
    "state": "Imo",
    "lng": 7.060325095000053,
    "lat": 5.749616840000044
  },
  {
    "label": "Nkwerre",
    "value": "Nkwerre",
    "state": "Imo",
    "lng": 7.109709297000052,
    "lat": 5.770588297000074
  },
  {
    "label": "Nwangele",
    "value": "Nwangele",
    "state": "Imo",
    "lng": 7.175797370000055,
    "lat": 5.735958586000038
  },
  {
    "label": "Obowo",
    "value": "Obowo",
    "state": "Imo",
    "lng": 7.422786106000046,
    "lat": 5.583626314000071
  },
  {
    "label": "Oguta",
    "value": "Oguta",
    "state": "Imo",
    "lng": 6.83610552600004,
    "lat": 5.754879957000071
  },
  {
    "label": "Okigwe",
    "value": "Okigwe",
    "state": "Imo",
    "lng": 7.394222266000043,
    "lat": 5.910171455000068
  },
  {
    "label": "Unuimo",
    "value": "Unuimo",
    "state": "Imo",
    "lng": 7.226127922000046,
    "lat": 5.853988017000063
  },
  {
    "label": "Orlu",
    "value": "Orlu",
    "state": "Imo",
    "lng": 7.056075880000037,
    "lat": 5.838800033000041
  },
  {
    "label": "Orsu",
    "value": "Orsu",
    "state": "Imo",
    "lng": 7.01588057500004,
    "lat": 5.89526945700004
  },
  {
    "label": "Oru East",
    "value": "Oru East",
    "state": "Imo",
    "lng": 6.979285301000061,
    "lat": 5.788091577000046
  },
  {
    "label": "Oru West",
    "value": "Oru West",
    "state": "Imo",
    "lng": 6.907081442000049,
    "lat": 5.819555076000029
  },
  {
    "label": "Owerri-Municipal",
    "value": "Owerri-Municipal",
    "state": "Imo",
    "lng": 7.042401727000026,
    "lat": 5.45220517000007
  },
  {
    "label": "Owerri North",
    "value": "Owerri North",
    "state": "Imo",
    "lng": 7.158354307000025,
    "lat": 5.484988671000053
  },
  {
    "label": "Owerri West",
    "value": "Owerri West",
    "state": "Imo",
    "lng": 7.01390598100005,
    "lat": 5.534204037000052
  },
  {
    "label": "Auyo",
    "value": "Auyo",
    "state": "Jigawa",
    "lng": 10.059639471000025,
    "lat": 12.440587813000036
  },
  {
    "label": "Babura",
    "value": "Babura",
    "state": "Jigawa",
    "lng": 9.037084566000033,
    "lat": 12.81449026000007
  },
  {
    "label": "Birni Kudu",
    "value": "Birni Kudu",
    "state": "Jigawa",
    "lng": 9.640267473000051,
    "lat": 11.356820087000074
  },
  {
    "label": "Biriniwa",
    "value": "Biriniwa",
    "state": "Jigawa",
    "lng": 10.25479758800003,
    "lat": 13.012141113000041
  },
  {
    "label": "Buji",
    "value": "Buji",
    "state": "Jigawa",
    "lng": 9.820613569000045,
    "lat": 11.688444509000021
  },
  {
    "label": "Dutse",
    "value": "Dutse",
    "state": "Jigawa",
    "lng": 9.318601820000026,
    "lat": 12.055549732000031
  },
  {
    "label": "Gagarawa",
    "value": "Gagarawa",
    "state": "Jigawa",
    "lng": 9.690529258000026,
    "lat": 12.551608431000034
  },
  {
    "label": "Garki",
    "value": "Garki",
    "state": "Jigawa",
    "lng": 9.028389306000065,
    "lat": 12.598680495000053
  },
  {
    "label": "Gumel",
    "value": "Gumel",
    "state": "Jigawa",
    "lng": 9.505151785000066,
    "lat": 12.609246272000064
  },
  {
    "label": "Guri",
    "value": "Guri",
    "state": "Jigawa",
    "lng": 10.50891946300004,
    "lat": 12.82494001200007
  },
  {
    "label": "Gwaram",
    "value": "Gwaram",
    "state": "Jigawa",
    "lng": 10.142108102000066,
    "lat": 11.239958588000036
  },
  {
    "label": "Gwiwa",
    "value": "Gwiwa",
    "state": "Jigawa",
    "lng": 8.39947711000002,
    "lat": 12.826810126000055
  },
  {
    "label": "Hadejia",
    "value": "Hadejia",
    "state": "Jigawa",
    "lng": 10.059639471000025,
    "lat": 12.440587813000036
  },
  {
    "label": "Jahun",
    "value": "Jahun",
    "state": "Jigawa",
    "lng": 9.803989902000069,
    "lat": 12.112819097000056
  },
  {
    "label": "Kafin Hausa",
    "value": "Kafin Hausa",
    "state": "Jigawa",
    "lng": 10.19565416200004,
    "lat": 12.327196580000077
  },
  {
    "label": "Kaugama",
    "value": "Kaugama",
    "state": "Jigawa",
    "lng": 9.758126700000048,
    "lat": 12.809395793000022
  },
  {
    "label": "Kazaure",
    "value": "Kazaure",
    "state": "Jigawa",
    "lng": 8.677100962000054,
    "lat": 12.705171569000072
  },
  {
    "label": "Kiri Kasamma",
    "value": "Kiri Kasamma",
    "state": "Jigawa",
    "lng": 10.337584372000038,
    "lat": 12.465649792000022
  },
  {
    "label": "Kiyawa",
    "value": "Kiyawa",
    "state": "Jigawa",
    "lng": 9.894061326000042,
    "lat": 11.952091617000065
  },
  {
    "label": "Maigatari",
    "value": "Maigatari",
    "state": "Jigawa",
    "lng": 9.658108450000043,
    "lat": 12.809121391000076
  },
  {
    "label": "Malam Madori",
    "value": "Malam Madori",
    "state": "Jigawa",
    "lng": 10.060007579000057,
    "lat": 12.50474699800003
  },
  {
    "label": "Miga",
    "value": "Miga",
    "state": "Jigawa",
    "lng": 9.727733407000073,
    "lat": 12.301661694000074
  },
  {
    "label": "Ringim",
    "value": "Ringim",
    "state": "Jigawa",
    "lng": 9.337813339000036,
    "lat": 12.167579370000055
  },
  {
    "label": "Roni",
    "value": "Roni",
    "state": "Jigawa",
    "lng": 8.36934719800007,
    "lat": 12.662674086000038
  },
  {
    "label": "Sule-Tankarkar",
    "value": "Sule-Tankarkar",
    "state": "Jigawa",
    "lng": 9.340755754000043,
    "lat": 12.814437757000064
  },
  {
    "label": "Taura",
    "value": "Taura",
    "state": "Jigawa",
    "lng": 9.603640985000027,
    "lat": 12.333074708000026
  },
  {
    "label": "Yankwashi",
    "value": "Yankwashi",
    "state": "Jigawa",
    "lng": 8.495636408000053,
    "lat": 12.834476106000068
  },
  {
    "label": "Birnin-Gwari",
    "value": "Birnin-Gwari",
    "state": "Kaduna",
    "lng": 7.217633778000049,
    "lat": 11.170467622000047
  },
  {
    "label": "Chikun",
    "value": "Chikun",
    "state": "Kaduna",
    "lng": 7.153650248000076,
    "lat": 10.647837072000073
  },
  {
    "label": "Giwa",
    "value": "Giwa",
    "state": "Kaduna",
    "lng": 7.629555874000062,
    "lat": 11.283232609000038
  },
  {
    "label": "Igabi",
    "value": "Igabi",
    "state": "Kaduna",
    "lng": 7.50717170300004,
    "lat": 11.006753778000075
  },
  {
    "label": "Ikara",
    "value": "Ikara",
    "state": "Kaduna",
    "lng": 8.274441638000042,
    "lat": 11.30619357300003
  },
  {
    "label": "Jaba",
    "value": "Jaba",
    "state": "Kaduna",
    "lng": 8.128093939000053,
    "lat": 9.627155548000076
  },
  {
    "label": "Kachia",
    "value": "Kachia",
    "state": "Kaduna",
    "lng": 7.609337383000025,
    "lat": 10.166779620000057
  },
  {
    "label": "Kaduna North",
    "value": "Kaduna North",
    "state": "Kaduna",
    "lng": 7.471489406000046,
    "lat": 10.532432762000042
  },
  {
    "label": "Kaduna South",
    "value": "Kaduna South",
    "state": "Kaduna",
    "lng": 7.433182027000043,
    "lat": 10.489002466000045
  },
  {
    "label": "Kagarko",
    "value": "Kagarko",
    "state": "Kaduna",
    "lng": 7.947628200000054,
    "lat": 9.63095740500006
  },
  {
    "label": "Kaura",
    "value": "Kaura",
    "state": "Kaduna",
    "lng": 8.599562915000035,
    "lat": 9.737936025000067
  },
  {
    "label": "Kauru",
    "value": "Kauru",
    "state": "Kaduna",
    "lng": 8.218168013000025,
    "lat": 10.156783808000057
  },
  {
    "label": "Kubau",
    "value": "Kubau",
    "state": "Kaduna",
    "lng": 8.525234330000046,
    "lat": 11.131427429000041
  },
  {
    "label": "Kudan",
    "value": "Kudan",
    "state": "Kaduna",
    "lng": 7.833902840000064,
    "lat": 11.377389545000028
  },
  {
    "label": "Lere",
    "value": "Lere",
    "state": "Kaduna",
    "lng": 8.508171865000065,
    "lat": 10.695245965000026
  },
  {
    "label": "Markafi",
    "value": "Markafi",
    "state": "Kaduna",
    "lng": 7.969383612000058,
    "lat": 11.458786443000065
  },
  {
    "label": "Sabon-Gari",
    "value": "Sabon-Gari",
    "state": "Kaduna",
    "lng": 7.808720968000046,
    "lat": 11.158277841000029
  },
  {
    "label": "Sanga",
    "value": "Sanga",
    "state": "Kaduna",
    "lng": 8.570287677000067,
    "lat": 9.498610024000072
  },
  {
    "label": "Soba",
    "value": "Soba",
    "state": "Kaduna",
    "lng": 8.055931115000021,
    "lat": 11.20233935400006
  },
  {
    "label": "Zango-Kataf",
    "value": "Zango-Kataf",
    "state": "Kaduna",
    "lng": 8.516169466000065,
    "lat": 9.737173960000064
  },
  {
    "label": "Zaria",
    "value": "Zaria",
    "state": "Kaduna",
    "lng": 7.77153918700003,
    "lat": 11.123617883000065
  },
  {
    "label": "Ajingi",
    "value": "Ajingi",
    "state": "Kano",
    "lng": 9.251157976000059,
    "lat": 12.001310400000023
  },
  {
    "label": "Albasu",
    "value": "Albasu",
    "state": "Kano",
    "lng": 9.362553578000075,
    "lat": 11.564279386000067
  },
  {
    "label": "Bebeji",
    "value": "Bebeji",
    "state": "Kano",
    "lng": 8.318352987000026,
    "lat": 11.714462294000043
  },
  {
    "label": "Bichi",
    "value": "Bichi",
    "state": "Kano",
    "lng": 8.436825462000058,
    "lat": 12.339648429000022
  },
  {
    "label": "Bunkure",
    "value": "Bunkure",
    "state": "Kano",
    "lng": 8.636704348000023,
    "lat": 11.723569691000023
  },
  {
    "label": "Dala",
    "value": "Dala",
    "state": "Kano",
    "lng": 8.466895789000034,
    "lat": 12.063112239000077
  },
  {
    "label": "Dambatta",
    "value": "Dambatta",
    "state": "Kano",
    "lng": 8.648220847000061,
    "lat": 12.595221779000042
  },
  {
    "label": "Dawakin Kudu",
    "value": "Dawakin Kudu",
    "state": "Kano",
    "lng": 8.832627180000031,
    "lat": 11.797960145000047
  },
  {
    "label": "Dawakin Tofa",
    "value": "Dawakin Tofa",
    "state": "Kano",
    "lng": 8.517902222000032,
    "lat": 12.25465967100007
  },
  {
    "label": "Doguwa",
    "value": "Doguwa",
    "state": "Kano",
    "lng": 8.788697313000057,
    "lat": 10.942250513000033
  },
  {
    "label": "Fagge",
    "value": "Fagge",
    "state": "Kano",
    "lng": 8.55185522000005,
    "lat": 12.050348908000046
  },
  {
    "label": "Gabasawa",
    "value": "Gabasawa",
    "state": "Kano",
    "lng": 9.04383942800007,
    "lat": 12.079520311000067
  },
  {
    "label": "Garko",
    "value": "Garko",
    "state": "Kano",
    "lng": 8.95395647500004,
    "lat": 11.60571956900003
  },
  {
    "label": "Garum Mallam",
    "value": "Garum Mallam",
    "state": "Kano",
    "lng": 8.47226712500003,
    "lat": 11.703570462000073
  },
  {
    "label": "Gaya",
    "value": "Gaya",
    "state": "Kano",
    "lng": 9.234156624000036,
    "lat": 11.89229014600005
  },
  {
    "label": "Gezawa",
    "value": "Gezawa",
    "state": "Kano",
    "lng": 8.83727028100003,
    "lat": 11.979807094000023
  },
  {
    "label": "Gwale",
    "value": "Gwale",
    "state": "Kano",
    "lng": 8.508244921000028,
    "lat": 12.000528215000031
  },
  {
    "label": "Kibiya",
    "value": "Kibiya",
    "state": "Kano",
    "lng": 8.76170750600005,
    "lat": 11.635323206000066
  },
  {
    "label": "Kabo",
    "value": "Kabo",
    "state": "Kano",
    "lng": 8.131393676000073,
    "lat": 11.99685686600003
  },
  {
    "label": "Kano Municipal",
    "value": "Kano Municipal",
    "state": "Kano",
    "lng": 8.532641614000056,
    "lat": 11.989859412000044
  },
  {
    "label": "Karaye",
    "value": "Karaye",
    "state": "Kano",
    "lng": 8.147157047000064,
    "lat": 11.786487704000024
  },
  {
    "label": "Kiru",
    "value": "Kiru",
    "state": "Kano",
    "lng": 8.276502623000056,
    "lat": 11.783690721000028
  },
  {
    "label": "Kumbotso",
    "value": "Kumbotso",
    "state": "Kano",
    "lng": 8.494325252000067,
    "lat": 11.94635779600003
  },
  {
    "label": "Kunchi",
    "value": "Kunchi",
    "state": "Kano",
    "lng": 8.383086381000055,
    "lat": 12.443739802000039
  },
  {
    "label": "Kura",
    "value": "Kura",
    "state": "Kano",
    "lng": 8.518381828000031,
    "lat": 11.840929773000028
  },
  {
    "label": "Madobi",
    "value": "Madobi",
    "state": "Kano",
    "lng": 8.559234868000033,
    "lat": 11.872559550000062
  },
  {
    "label": "Minjibir",
    "value": "Minjibir",
    "state": "Kano",
    "lng": 8.73024575200003,
    "lat": 12.214969363000023
  },
  {
    "label": "Nasarawa",
    "value": "Nasarawa",
    "state": "Kano",
    "lng": 8.596320561000027,
    "lat": 12.021417272000065
  },
  {
    "label": "Rano",
    "value": "Rano",
    "state": "Kano",
    "lng": 8.617394563000062,
    "lat": 11.345740412000055
  },
  {
    "label": "Rimin Gado",
    "value": "Rimin Gado",
    "state": "Kano",
    "lng": 8.410190144000069,
    "lat": 11.92947287100003
  },
  {
    "label": "Rogo",
    "value": "Rogo",
    "state": "Kano",
    "lng": 7.968176123000035,
    "lat": 11.643480024000041
  },
  {
    "label": "Shanono",
    "value": "Shanono",
    "state": "Kano",
    "lng": 8.005803416000049,
    "lat": 12.160626753000031
  },
  {
    "label": "Sumaila",
    "value": "Sumaila",
    "state": "Kano",
    "lng": 9.016634026000077,
    "lat": 11.501169877000052
  },
  {
    "label": "Takai",
    "value": "Takai",
    "state": "Kano",
    "lng": 9.362553578000075,
    "lat": 11.564279386000067
  },
  {
    "label": "Tarauni",
    "value": "Tarauni",
    "state": "Kano",
    "lng": 8.591597523000075,
    "lat": 11.959780008000052
  },
  {
    "label": "Tofa",
    "value": "Tofa",
    "state": "Kano",
    "lng": 8.39214899500007,
    "lat": 12.019260424000038
  },
  {
    "label": "Tudun Wada",
    "value": "Tudun Wada",
    "state": "Kano",
    "lng": 8.804309402000058,
    "lat": 11.392134401000021
  },
  {
    "label": "Ungogo",
    "value": "Ungogo",
    "state": "Kano",
    "lng": 8.652526546000047,
    "lat": 12.092630886000052
  },
  {
    "label": "Warawa",
    "value": "Warawa",
    "state": "Kano",
    "lng": 8.83727028100003,
    "lat": 11.979807094000023
  },
  {
    "label": "Wudil",
    "value": "Wudil",
    "state": "Kano",
    "lng": 8.946037484000044,
    "lat": 11.893340237000075
  },
  {
    "label": "Bakori",
    "value": "Bakori",
    "state": "Katsina",
    "lng": 7.404046600000072,
    "lat": 11.796404818000042
  },
  {
    "label": "Batagarawa",
    "value": "Batagarawa",
    "state": "Katsina",
    "lng": 7.570686067000054,
    "lat": 12.732950457000072
  },
  {
    "label": "Batsari",
    "value": "Batsari",
    "state": "Katsina",
    "lng": 7.405379899000025,
    "lat": 12.898166899000046
  },
  {
    "label": "Baure",
    "value": "Baure",
    "state": "Katsina",
    "lng": 9.045207744000038,
    "lat": 12.837206055000024
  },
  {
    "label": "Bindawa",
    "value": "Bindawa",
    "state": "Katsina",
    "lng": 7.970837923000033,
    "lat": 12.74289292900005
  },
  {
    "label": "Charanchi",
    "value": "Charanchi",
    "state": "Katsina",
    "lng": 7.794117867000068,
    "lat": 12.70089383100003
  },
  {
    "label": "Dan Musa",
    "value": "Dan Musa",
    "state": "Katsina",
    "lng": 7.190081791000068,
    "lat": 12.348307259000023
  },
  {
    "label": "Dandume",
    "value": "Dandume",
    "state": "Katsina",
    "lng": 7.170854986000052,
    "lat": 11.56968007000006
  },
  {
    "label": "Danja",
    "value": "Danja",
    "state": "Katsina",
    "lng": 7.513404800000046,
    "lat": 11.449110113000074
  },
  {
    "label": "Daura",
    "value": "Daura",
    "state": "Katsina",
    "lng": 8.355589014000032,
    "lat": 13.002581500000076
  },
  {
    "label": "Dutsi",
    "value": "Dutsi",
    "state": "Katsina",
    "lng": 8.171156741000061,
    "lat": 13.00415266500005
  },
  {
    "label": "Dutsin-Ma",
    "value": "Dutsin-Ma",
    "state": "Katsina",
    "lng": 7.62810674900004,
    "lat": 12.432084303000067
  },
  {
    "label": "Faskari",
    "value": "Faskari",
    "state": "Katsina",
    "lng": 7.288977109000029,
    "lat": 11.84247020600003
  },
  {
    "label": "Funtua",
    "value": "Funtua",
    "state": "Katsina",
    "lng": 7.331445444000053,
    "lat": 11.599211024000056
  },
  {
    "label": "Ingawa",
    "value": "Ingawa",
    "state": "Katsina",
    "lng": 8.16792395300007,
    "lat": 12.804061889000025
  },
  {
    "label": "Jibia",
    "value": "Jibia",
    "state": "Katsina",
    "lng": 7.594379848000074,
    "lat": 13.07008200200005
  },
  {
    "label": "Kafur",
    "value": "Kafur",
    "state": "Katsina",
    "lng": 7.874760311000045,
    "lat": 11.783614037000063
  },
  {
    "label": "Kaita",
    "value": "Kaita",
    "state": "Katsina",
    "lng": 7.818018262000066,
    "lat": 13.330421332000071
  },
  {
    "label": "Kankara",
    "value": "Kankara",
    "state": "Katsina",
    "lng": 7.486223529000029,
    "lat": 12.092532454000036
  },
  {
    "label": "Kankia",
    "value": "Kankia",
    "state": "Katsina",
    "lng": 7.940406959000029,
    "lat": 12.57806964200006
  },
  {
    "label": "Katsina",
    "value": "Katsina",
    "state": "Katsina",
    "lng": 7.693802420000054,
    "lat": 13.023847334000038
  },
  {
    "label": "Kurfi",
    "value": "Kurfi",
    "state": "Katsina",
    "lng": 7.558717012000045,
    "lat": 12.702037747000077
  },
  {
    "label": "Kusada",
    "value": "Kusada",
    "state": "Katsina",
    "lng": 7.986897689000045,
    "lat": 12.578695034000077
  },
  {
    "label": "Malumfashi",
    "value": "Malumfashi",
    "state": "Katsina",
    "lng": 7.837203654000064,
    "lat": 11.990107859000034
  },
  {
    "label": "Mani",
    "value": "Mani",
    "state": "Katsina",
    "lng": 8.055358162000061,
    "lat": 12.962002344000041
  },
  {
    "label": "Mashi",
    "value": "Mashi",
    "state": "Katsina",
    "lng": 8.066014503000076,
    "lat": 13.304209808000053
  },
  {
    "label": "Matazu",
    "value": "Matazu",
    "state": "Katsina",
    "lng": 7.629457775000049,
    "lat": 12.367142215000058
  },
  {
    "label": "Musawa",
    "value": "Musawa",
    "state": "Katsina",
    "lng": 7.868158349000055,
    "lat": 12.245371400000067
  },
  {
    "label": "Rimi",
    "value": "Rimi",
    "state": "Katsina",
    "lng": 7.83462589800007,
    "lat": 13.080384155000047
  },
  {
    "label": "Sabuwa",
    "value": "Sabuwa",
    "state": "Katsina",
    "lng": 7.101858875000062,
    "lat": 11.531483741000045
  },
  {
    "label": "Safana",
    "value": "Safana",
    "state": "Katsina",
    "lng": 8.405774238000049,
    "lat": 13.023042949000057
  },
  {
    "label": "Sandamu",
    "value": "Sandamu",
    "state": "Katsina",
    "lng": 7.290532203000055,
    "lat": 12.681999548000022
  },
  {
    "label": "Zango",
    "value": "Zango",
    "state": "Katsina",
    "lng": 8.709818127000062,
    "lat": 12.91382668600005
  },
  {
    "label": "Aleiro",
    "value": "Aleiro",
    "state": "Kebbi",
    "lng": 4.472168337000028,
    "lat": 12.414870844000063
  },
  {
    "label": "Arewa-Dandi",
    "value": "Arewa-Dandi",
    "state": "Kebbi",
    "lng": 4.522875430000056,
    "lat": 13.14050549500007
  },
  {
    "label": "Argungu",
    "value": "Argungu",
    "state": "Kebbi",
    "lng": 4.773120192000022,
    "lat": 12.724463263000075
  },
  {
    "label": "Augie",
    "value": "Augie",
    "state": "Kebbi",
    "lng": 4.706336357000055,
    "lat": 13.083640211000045
  },
  {
    "label": "Bagudo",
    "value": "Bagudo",
    "state": "Kebbi",
    "lng": 3.835881663000066,
    "lat": 11.569758466000053
  },
  {
    "label": "Birnin Kebbi",
    "value": "Birnin Kebbi",
    "state": "Kebbi",
    "lng": 4.445171335000055,
    "lat": 12.561643893000053
  },
  {
    "label": "Bunza",
    "value": "Bunza",
    "state": "Kebbi",
    "lng": 3.867021790000024,
    "lat": 12.41353354000006
  },
  {
    "label": "Dandi",
    "value": "Dandi",
    "state": "Kebbi",
    "lng": 3.938027636000072,
    "lat": 11.988734430000022
  },
  {
    "label": "Fakai",
    "value": "Fakai",
    "state": "Kebbi",
    "lng": 5.015673188000051,
    "lat": 11.728944245000037
  },
  {
    "label": "Gwandu",
    "value": "Gwandu",
    "state": "Kebbi",
    "lng": 4.567024917000026,
    "lat": 12.31369449600004
  },
  {
    "label": "Jega",
    "value": "Jega",
    "state": "Kebbi",
    "lng": 4.541342476000068,
    "lat": 12.231508336000047
  },
  {
    "label": "Kalgo",
    "value": "Kalgo",
    "state": "Kebbi",
    "lng": 4.247743201000048,
    "lat": 12.327450114000044
  },
  {
    "label": "Maiyama",
    "value": "Maiyama",
    "state": "Kebbi",
    "lng": 4.53512136300003,
    "lat": 11.863444403000074
  },
  {
    "label": "Ngaski",
    "value": "Ngaski",
    "state": "Kebbi",
    "lng": 5.10087866300006,
    "lat": 10.759829796000076
  },
  {
    "label": "Sakaba",
    "value": "Sakaba",
    "state": "Kebbi",
    "lng": 5.397955649000039,
    "lat": 11.402651526000056
  },
  {
    "label": "Shanga",
    "value": "Shanga",
    "state": "Kebbi",
    "lng": 4.761457664000034,
    "lat": 11.31491978200006
  },
  {
    "label": "Suru",
    "value": "Suru",
    "state": "Kebbi",
    "lng": 4.304988618000039,
    "lat": 11.723702681000077
  },
  {
    "label": "Yauri",
    "value": "Yauri",
    "state": "Kebbi",
    "lng": 4.802208255000039,
    "lat": 10.893743320000056
  },
  {
    "label": "Zuru",
    "value": "Zuru",
    "state": "Kebbi",
    "lng": 5.397955649000039,
    "lat": 11.402651526000056
  },
  {
    "label": "Adavi",
    "value": "Adavi",
    "state": "Kogi",
    "lng": 6.69229467100007,
    "lat": 7.78146012600007
  },
  {
    "label": "Ajaokuta",
    "value": "Ajaokuta",
    "state": "Kogi",
    "lng": 6.755963742000063,
    "lat": 7.73560414700006
  },
  {
    "label": "Ankpa",
    "value": "Ankpa",
    "state": "Kogi",
    "lng": 7.753594530000044,
    "lat": 7.688056807000066
  },
  {
    "label": "Bassa",
    "value": "Bassa",
    "state": "Kogi",
    "lng": 7.445786741000063,
    "lat": 8.044860924000034
  },
  {
    "label": "Dekina",
    "value": "Dekina",
    "state": "Kogi",
    "lng": 7.482743104000065,
    "lat": 7.520640902000025
  },
  {
    "label": "Ibaji",
    "value": "Ibaji",
    "state": "Kogi",
    "lng": 6.960817397000028,
    "lat": 6.840899050000075
  },
  {
    "label": "Idah",
    "value": "Idah",
    "state": "Kogi",
    "lng": 6.789291673000037,
    "lat": 7.025212358000033
  },
  {
    "label": "Igalamela-Odolu",
    "value": "Igalamela-Odolu",
    "state": "Kogi",
    "lng": 7.307423535000055,
    "lat": 7.18332145200003
  },
  {
    "label": "Ijumu",
    "value": "Ijumu",
    "state": "Kogi",
    "lng": 6.02739187100002,
    "lat": 8.120030607000047
  },
  {
    "label": "Kogi",
    "value": "Kogi",
    "state": "Kogi",
    "lng": 6.963587837000034,
    "lat": 7.879294880000032
  },
  {
    "label": "Lokoja",
    "value": "Lokoja",
    "state": "Kogi",
    "lng": 6.384096723000027,
    "lat": 8.644262261000051
  },
  {
    "label": "Mopa-Muro",
    "value": "Mopa-Muro",
    "state": "Kogi",
    "lng": 6.087030465000055,
    "lat": 8.354029765000064
  },
  {
    "label": "Ofu",
    "value": "Ofu",
    "state": "Kogi",
    "lng": 7.474266460000024,
    "lat": 7.403488122000056
  },
  {
    "label": "Okehi",
    "value": "Okehi",
    "state": "Kogi",
    "lng": 6.570581082000047,
    "lat": 7.86969244200003
  },
  {
    "label": "Okene",
    "value": "Okene",
    "state": "Kogi",
    "lng": 6.404452900000024,
    "lat": 7.521543207000036
  },
  {
    "label": "Olamabolo",
    "value": "Olamabolo",
    "state": "Kogi",
    "lng": 7.774711988000035,
    "lat": 7.301192623000077
  },
  {
    "label": "Omala",
    "value": "Omala",
    "state": "Kogi",
    "lng": 7.676837731000035,
    "lat": 8.014471178000065
  },
  {
    "label": "Yagba East",
    "value": "Yagba East",
    "state": "Kogi",
    "lng": 6.082657812000036,
    "lat": 8.401764024000045
  },
  {
    "label": "Yagba West",
    "value": "Yagba West",
    "state": "Kogi",
    "lng": 5.688176712000029,
    "lat": 8.452851312000064
  },
  {
    "label": "Asa",
    "value": "Asa",
    "state": "Kwara",
    "lng": 4.479101146000062,
    "lat": 8.561439535000034
  },
  {
    "label": "Baruten",
    "value": "Baruten",
    "state": "Kwara",
    "lng": 3.823319255000058,
    "lat": 10.054305857000031
  },
  {
    "label": "Edu",
    "value": "Edu",
    "state": "Kwara",
    "lng": 5.525417717000039,
    "lat": 8.940100508000057
  },
  {
    "label": "Ekiti",
    "value": "Ekiti",
    "state": "Kwara",
    "lng": 5.497963823000021,
    "lat": 8.11066446600006
  },
  {
    "label": "Ifelodun",
    "value": "Ifelodun",
    "state": "Kwara",
    "lng": 4.721976767000058,
    "lat": 7.958984728000075
  },
  {
    "label": "Ilorin East",
    "value": "Ilorin East",
    "state": "Kwara",
    "lng": 4.676814570000033,
    "lat": 8.506817824000052
  },
  {
    "label": "Ilorin South",
    "value": "Ilorin South",
    "state": "Kwara",
    "lng": 4.594469149000076,
    "lat": 8.527765463000037
  },
  {
    "label": "Ilorin West",
    "value": "Ilorin West",
    "state": "Kwara",
    "lng": 4.513797212000043,
    "lat": 8.570279206000066
  },
  {
    "label": "Irepodun",
    "value": "Irepodun",
    "state": "Kwara",
    "lng": 5.181912553000075,
    "lat": 8.19249158100007
  },
  {
    "label": "Isin",
    "value": "Isin",
    "state": "Kwara",
    "lng": 5.23989578100003,
    "lat": 8.255067950000068
  },
  {
    "label": "Kaiama",
    "value": "Kaiama",
    "state": "Kwara",
    "lng": 3.823319255000058,
    "lat": 10.054305857000031
  },
  {
    "label": "Moro",
    "value": "Moro",
    "state": "Kwara",
    "lng": 4.890408058000048,
    "lat": 9.05683422800007
  },
  {
    "label": "Offa",
    "value": "Offa",
    "state": "Kwara",
    "lng": 4.74656052000006,
    "lat": 8.122604313000068
  },
  {
    "label": "Oke-Ero",
    "value": "Oke-Ero",
    "state": "Kwara",
    "lng": 5.457533390000037,
    "lat": 8.206403844000022
  },
  {
    "label": "Oyun",
    "value": "Oyun",
    "state": "Kwara",
    "lng": 4.74610473000007,
    "lat": 8.212347545000057
  },
  {
    "label": "Pategi",
    "value": "Pategi",
    "state": "Kwara",
    "lng": 6.208536010000046,
    "lat": 8.732374926000034
  },
  {
    "label": "Agege",
    "value": "Agege",
    "state": "Lagos",
    "lng": 3.335250491000068,
    "lat": 6.624185445000023
  },
  {
    "label": "Ajeromi-Ifelodun",
    "value": "Ajeromi-Ifelodun",
    "state": "Lagos",
    "lng": 3.338827388000027,
    "lat": 6.436401229000069
  },
  {
    "label": "Alimosho",
    "value": "Alimosho",
    "state": "Lagos",
    "lng": 3.307191385000067,
    "lat": 6.647376989000065
  },
  {
    "label": "Amuwo-Odofin",
    "value": "Amuwo-Odofin",
    "state": "Lagos",
    "lng": 3.316458920000059,
    "lat": 6.459038160000034
  },
  {
    "label": "Apapa",
    "value": "Apapa",
    "state": "Lagos",
    "lng": 3.365058359000045,
    "lat": 6.475946754000063
  },
  {
    "label": "Badagry",
    "value": "Badagry",
    "state": "Lagos",
    "lng": 3.103946204000067,
    "lat": 6.499459311000066
  },
  {
    "label": "Epe",
    "value": "Epe",
    "state": "Lagos",
    "lng": 3.916836717000024,
    "lat": 6.680703983000058
  },
  {
    "label": "Eti-Osa",
    "value": "Eti-Osa",
    "state": "Lagos",
    "lng": 3.629457022000054,
    "lat": 6.517911843000036
  },
  {
    "label": "Ifako-Ijaye",
    "value": "Ifako-Ijaye",
    "state": "Lagos",
    "lng": 3.287864544000058,
    "lat": 6.687031433000072
  },
  {
    "label": "Ikorodu",
    "value": "Ikorodu",
    "state": "Lagos",
    "lng": 3.699962121000056,
    "lat": 6.682374855000035
  },
  {
    "label": "Kosofe",
    "value": "Kosofe",
    "state": "Lagos",
    "lng": 3.434690753000041,
    "lat": 6.639135703000022
  },
  {
    "label": "Lagos Island",
    "value": "Lagos Island",
    "state": "Lagos",
    "lng": 3.406318196000029,
    "lat": 6.464496134000058
  },
  {
    "label": "Lagos Mainland",
    "value": "Lagos Mainland",
    "state": "Lagos",
    "lng": 3.405478275000064,
    "lat": 6.523253338000075
  },
  {
    "label": "Mushin",
    "value": "Mushin",
    "state": "Lagos",
    "lng": 3.367718297000067,
    "lat": 6.557177961000036
  },
  {
    "label": "Ojo",
    "value": "Ojo",
    "state": "Lagos",
    "lng": 3.250477102000048,
    "lat": 6.47835546400006
  },
  {
    "label": "Oshodi-Isolo",
    "value": "Oshodi-Isolo",
    "state": "Lagos",
    "lng": 3.352580998000064,
    "lat": 6.554777732000048
  },
  {
    "label": "Shomolu",
    "value": "Shomolu",
    "state": "Lagos",
    "lng": 3.368380118000061,
    "lat": 6.557161007000047
  },
  {
    "label": "Surulere",
    "value": "Surulere",
    "state": "Lagos",
    "lng": 3.368344047000051,
    "lat": 6.518561859000044
  },
  {
    "label": "Akwanga",
    "value": "Akwanga",
    "state": "Nasarawa",
    "lng": 8.423004132000074,
    "lat": 9.135594974000071
  },
  {
    "label": "Awe",
    "value": "Awe",
    "state": "Nasarawa",
    "lng": 9.273347147000038,
    "lat": 8.463870887000041
  },
  {
    "label": "Doma",
    "value": "Doma",
    "state": "Nasarawa",
    "lng": 8.443530227000053,
    "lat": 8.425130882000076
  },
  {
    "label": "Karu",
    "value": "Karu",
    "state": "Nasarawa",
    "lng": 7.997315167000068,
    "lat": 9.317783487000042
  },
  {
    "label": "Keana",
    "value": "Keana",
    "state": "Nasarawa",
    "lng": 8.956422338000039,
    "lat": 8.254094358000032
  },
  {
    "label": "Keffi",
    "value": "Keffi",
    "state": "Nasarawa",
    "lng": 7.927336785000023,
    "lat": 8.835207170000047
  },
  {
    "label": "Kokona",
    "value": "Kokona",
    "state": "Nasarawa",
    "lng": 8.16540623000003,
    "lat": 9.071158112000035
  },
  {
    "label": "Lafia",
    "value": "Lafia",
    "state": "Nasarawa",
    "lng": 9.060153692000029,
    "lat": 9.020597519000034
  },
  {
    "label": "Nasarawa",
    "value": "Nasarawa",
    "state": "Nasarawa",
    "lng": 8.596320561000027,
    "lat": 12.021417272000065
  },
  {
    "label": "Nasarawa-Eggon",
    "value": "Nasarawa-Eggon",
    "state": "Nasarawa",
    "lng": 8.524262375000035,
    "lat": 8.905374125000037
  },
  {
    "label": "Obi",
    "value": "Obi",
    "state": "Nasarawa",
    "lng": 9.008576169000037,
    "lat": 8.400404026000047
  },
  {
    "label": "Toto",
    "value": "Toto",
    "state": "Nasarawa",
    "lng": 7.404485174000058,
    "lat": 8.042964915000027
  },
  {
    "label": "Wamba",
    "value": "Wamba",
    "state": "Nasarawa",
    "lng": 8.927272735000031,
    "lat": 9.016075089000026
  },
  {
    "label": "Agaie",
    "value": "Agaie",
    "state": "Niger",
    "lng": 6.526823941000032,
    "lat": 9.229965097000047
  },
  {
    "label": "Agwara",
    "value": "Agwara",
    "state": "Niger",
    "lng": 4.724556794000023,
    "lat": 10.906424125000058
  },
  {
    "label": "Bida",
    "value": "Bida",
    "state": "Niger",
    "lng": 6.05498878800006,
    "lat": 9.111719024000024
  },
  {
    "label": "Borgu",
    "value": "Borgu",
    "state": "Niger",
    "lng": 4.335703885000044,
    "lat": 10.915319260000047
  },
  {
    "label": "Bosso",
    "value": "Bosso",
    "state": "Niger",
    "lng": 6.648762681000051,
    "lat": 9.535008319000042
  },
  {
    "label": "Chanchaga",
    "value": "Chanchaga",
    "state": "Niger",
    "lng": 6.559460090000073,
    "lat": 9.658105793000061
  },
  {
    "label": "Edati",
    "value": "Edati",
    "state": "Niger",
    "lng": 5.826130919000036,
    "lat": 9.155597199000056
  },
  {
    "label": "Gbako",
    "value": "Gbako",
    "state": "Niger",
    "lng": 6.220836187000032,
    "lat": 9.526764830000047
  },
  {
    "label": "Gurara",
    "value": "Gurara",
    "state": "Niger",
    "lng": 7.262890080000034,
    "lat": 9.354562445000056
  },
  {
    "label": "Katcha",
    "value": "Katcha",
    "state": "Niger",
    "lng": 6.48073570400004,
    "lat": 9.423735781000062
  },
  {
    "label": "Kontagora",
    "value": "Kontagora",
    "state": "Niger",
    "lng": 5.711857785000063,
    "lat": 10.234745796000027
  },
  {
    "label": "Lapai",
    "value": "Lapai",
    "state": "Niger",
    "lng": 6.795526474000042,
    "lat": 9.112392936000049
  },
  {
    "label": "Lavun",
    "value": "Lavun",
    "state": "Niger",
    "lng": 5.607848304000072,
    "lat": 9.68583393700004
  },
  {
    "label": "Magama",
    "value": "Magama",
    "state": "Niger",
    "lng": 5.355644866000034,
    "lat": 10.621164132000047
  },
  {
    "label": "Mariga",
    "value": "Mariga",
    "state": "Niger",
    "lng": 6.008521716000075,
    "lat": 11.141016
  },
  {
    "label": "Mashegu",
    "value": "Mashegu",
    "state": "Niger",
    "lng": 5.711857785000063,
    "lat": 10.234745796000027
  },
  {
    "label": "Mokwa",
    "value": "Mokwa",
    "state": "Niger",
    "lng": 5.287321549000069,
    "lat": 9.544455863000053
  },
  {
    "label": "Muya",
    "value": "Muya",
    "state": "Niger",
    "lng": 7.254066906000048,
    "lat": 10.039226540000072
  },
  {
    "label": "Paikoro",
    "value": "Paikoro",
    "state": "Niger",
    "lng": 7.204739963000065,
    "lat": 9.758295778000047
  },
  {
    "label": "Rafi",
    "value": "Rafi",
    "state": "Niger",
    "lng": 6.540331802000026,
    "lat": 10.545210062000024
  },
  {
    "label": "Rijau",
    "value": "Rijau",
    "state": "Niger",
    "lng": 5.154251172000045,
    "lat": 11.346612991000029
  },
  {
    "label": "Shiroro",
    "value": "Shiroro",
    "state": "Niger",
    "lng": 6.901178894000054,
    "lat": 10.076381575000028
  },
  {
    "label": "Suleja",
    "value": "Suleja",
    "state": "Niger",
    "lng": 7.219984847000035,
    "lat": 9.264526913000054
  },
  {
    "label": "Tafa",
    "value": "Tafa",
    "state": "Niger",
    "lng": 7.38816844400003,
    "lat": 9.349822979000066
  },
  {
    "label": "Wushishi",
    "value": "Wushishi",
    "state": "Niger",
    "lng": 6.20639039100007,
    "lat": 9.900596799000027
  },
  {
    "label": "Abeokuta North",
    "value": "Abeokuta North",
    "state": "Ogun",
    "lng": 3.143902570000023,
    "lat": 7.390937708000024
  },
  {
    "label": "Abeokuta South",
    "value": "Abeokuta South",
    "state": "Ogun",
    "lng": 3.399307195000063,
    "lat": 7.152992769000036
  },
  {
    "label": "Egbado North",
    "value": "Egbado North",
    "state": "Ogun",
    "lng": 3.122822043000042,
    "lat": 7.070918099000039
  },
  {
    "label": "Egbado South",
    "value": "Egbado South",
    "state": "Ogun",
    "lng": 3.061457399000062,
    "lat": 6.937674548000075
  },
  {
    "label": "Ifo",
    "value": "Ifo",
    "state": "Ogun",
    "lng": 3.438339896000059,
    "lat": 6.689821885000072
  },
  {
    "label": "Ijebu East",
    "value": "Ijebu East",
    "state": "Ogun",
    "lng": 4.365075514000068,
    "lat": 7.059701074000031
  },
  {
    "label": "Ijebu North",
    "value": "Ijebu North",
    "state": "Ogun",
    "lng": 4.203627631000074,
    "lat": 7.046032427000057
  },
  {
    "label": "Ijebu North East",
    "value": "Ijebu North East",
    "state": "Ogun",
    "lng": 3.969699940000055,
    "lat": 6.78886286900007
  },
  {
    "label": "Ijebu Ode",
    "value": "Ijebu Ode",
    "state": "Ogun",
    "lng": 3.969699940000055,
    "lat": 6.78886286900007
  },
  {
    "label": "Ikenne",
    "value": "Ikenne",
    "state": "Ogun",
    "lng": 3.753829643000074,
    "lat": 6.908132763000026
  },
  {
    "label": "Imeko-Afon",
    "value": "Imeko-Afon",
    "state": "Ogun",
    "lng": 3.025958563000074,
    "lat": 7.791801102000022
  },
  {
    "label": "Ipokia",
    "value": "Ipokia",
    "state": "Ogun",
    "lng": 2.81924176800004,
    "lat": 6.835682957000074
  },
  {
    "label": "Obafemi-Owode",
    "value": "Obafemi-Owode",
    "state": "Ogun",
    "lng": 3.727600573000075,
    "lat": 7.083577640000044
  },
  {
    "label": "Odeda",
    "value": "Odeda",
    "state": "Ogun",
    "lng": 3.545752558000061,
    "lat": 7.440804434000029
  },
  {
    "label": "Odogbolu",
    "value": "Odogbolu",
    "state": "Ogun",
    "lng": 3.936264797000035,
    "lat": 6.891647828000032
  },
  {
    "label": "Ogun waterside",
    "value": "Ogun waterside",
    "state": "Ogun",
    "lng": 4.537379163000026,
    "lat": 6.60061057300004
  },
  {
    "label": "Remo North",
    "value": "Remo North",
    "state": "Ogun",
    "lng": 3.842820781000057,
    "lat": 7.082940291000057
  },
  {
    "label": "Shagamu",
    "value": "Shagamu",
    "state": "Ogun",
    "lng": 3.716936341000064,
    "lat": 6.799603586000046
  },
  {
    "label": "Akoko North East",
    "value": "Akoko North East",
    "state": "Ondo",
    "lng": 6.004125679000026,
    "lat": 7.529235776000064
  },
  {
    "label": "Akoko North West",
    "value": "Akoko North West",
    "state": "Ondo",
    "lng": 5.940000477000069,
    "lat": 7.645110143000068
  },
  {
    "label": "Akoko South East",
    "value": "Akoko South East",
    "state": "Ondo",
    "lng": 5.957695131000037,
    "lat": 7.344322314000067
  },
  {
    "label": "Akoko South West",
    "value": "Akoko South West",
    "state": "Ondo",
    "lng": 5.827208976000065,
    "lat": 7.496734239000034
  },
  {
    "label": "Akure North",
    "value": "Akure North",
    "state": "Ondo",
    "lng": 5.388226154000051,
    "lat": 7.283186924000063
  },
  {
    "label": "Akure South",
    "value": "Akure South",
    "state": "Ondo",
    "lng": 5.191441935000057,
    "lat": 7.327134983000064
  },
  {
    "label": "Ese-Odo",
    "value": "Ese-Odo",
    "state": "Ondo",
    "lng": 5.015618871000072,
    "lat": 6.292353136000031
  },
  {
    "label": "Idanre",
    "value": "Idanre",
    "state": "Ondo",
    "lng": 5.083097555000052,
    "lat": 7.250691042000028
  },
  {
    "label": "Ifedore",
    "value": "Ifedore",
    "state": "Ondo",
    "lng": 5.084746384000027,
    "lat": 7.456950544000051
  },
  {
    "label": "Ilaje",
    "value": "Ilaje",
    "state": "Ondo",
    "lng": 4.593438008000021,
    "lat": 6.492928491000043
  },
  {
    "label": "Ile-Oluji-Okeigbo",
    "value": "Ile-Oluji-Okeigbo",
    "state": "Ondo",
    "lng": 4.985594776000028,
    "lat": 7.376762323000037
  },
  {
    "label": "Irele",
    "value": "Irele",
    "state": "Ondo",
    "lng": 5.16064579600004,
    "lat": 6.563108169000031
  },
  {
    "label": "Odigbo",
    "value": "Odigbo",
    "state": "Ondo",
    "lng": 4.988069043000053,
    "lat": 6.898733716000038
  },
  {
    "label": "Okitipupa",
    "value": "Okitipupa",
    "state": "Ondo",
    "lng": 4.84207748700004,
    "lat": 6.588557516000037
  },
  {
    "label": "Ondo East",
    "value": "Ondo East",
    "state": "Ondo",
    "lng": 5.036707509000053,
    "lat": 7.255974283000057
  },
  {
    "label": "Ondo West",
    "value": "Ondo West",
    "state": "Ondo",
    "lng": 4.998771064000039,
    "lat": 6.938887652000062
  },
  {
    "label": "Ose",
    "value": "Ose",
    "state": "Ondo",
    "lng": 5.846866132000059,
    "lat": 7.39451077700005
  },
  {
    "label": "Owo",
    "value": "Owo",
    "state": "Ondo",
    "lng": 5.669749175000049,
    "lat": 7.300109383000063
  },
  {
    "label": "Atakumosa East",
    "value": "Atakumosa East",
    "state": "Osun",
    "lng": 4.834250885000074,
    "lat": 7.374184176000028
  },
  {
    "label": "Atakumosa West",
    "value": "Atakumosa West",
    "state": "Osun",
    "lng": 4.679073883000058,
    "lat": 7.671786181000073
  },
  {
    "label": "Aiyedade",
    "value": "Aiyedade",
    "state": "Osun",
    "lng": 4.365075514000068,
    "lat": 7.059701074000031
  },
  {
    "label": "Aiyedire",
    "value": "Aiyedire",
    "state": "Osun",
    "lng": 4.350677472000029,
    "lat": 7.652536308000037
  },
  {
    "label": "Boluwaduro",
    "value": "Boluwaduro",
    "state": "Osun",
    "lng": 4.833099802000049,
    "lat": 7.875925410000036
  },
  {
    "label": "Boripe",
    "value": "Boripe",
    "state": "Osun",
    "lng": 4.732655193000028,
    "lat": 7.952502106000054
  },
  {
    "label": "Ede North",
    "value": "Ede North",
    "state": "Osun",
    "lng": 4.56592041600004,
    "lat": 7.695727091000037
  },
  {
    "label": "Ede South",
    "value": "Ede South",
    "state": "Osun",
    "lng": 4.56592041600004,
    "lat": 7.695727091000037
  },
  {
    "label": "Egbedore",
    "value": "Egbedore",
    "state": "Osun",
    "lng": 4.422693161000041,
    "lat": 7.886240539000028
  },
  {
    "label": "Ejigbo",
    "value": "Ejigbo",
    "state": "Osun",
    "lng": 4.36564979000002,
    "lat": 7.859468261000075
  },
  {
    "label": "Ife Central",
    "value": "Ife Central",
    "state": "Osun",
    "lng": 4.580928818000075,
    "lat": 7.539316793000069
  },
  {
    "label": "Ife East",
    "value": "Ife East",
    "state": "Osun",
    "lng": 4.648405037000032,
    "lat": 7.43706452300006
  },
  {
    "label": "Ife North",
    "value": "Ife North",
    "state": "Osun",
    "lng": 4.526352952000025,
    "lat": 7.617952403000061
  },
  {
    "label": "Ifedayo",
    "value": "Ifedayo",
    "state": "Osun",
    "lng": 5.054930121000041,
    "lat": 8.049190382000063
  },
  {
    "label": "Ila",
    "value": "Ila",
    "state": "Osun",
    "lng": 4.95673851600003,
    "lat": 8.05354841600007
  },
  {
    "label": "Ilesha East",
    "value": "Ilesha East",
    "state": "Osun",
    "lng": 4.80927424500004,
    "lat": 7.59154262800007
  },
  {
    "label": "Ilesha West",
    "value": "Ilesha West",
    "state": "Osun",
    "lng": 4.779076903000032,
    "lat": 7.65723334200004
  },
  {
    "label": "Irepodun",
    "value": "Irepodun",
    "state": "Osun",
    "lng": 5.181912553000075,
    "lat": 8.19249158100007
  },
  {
    "label": "Irewole",
    "value": "Irewole",
    "state": "Osun",
    "lng": 4.25218970100002,
    "lat": 7.472385308000071
  },
  {
    "label": "Isokan",
    "value": "Isokan",
    "state": "Osun",
    "lng": 4.278998328000057,
    "lat": 7.33486072900007
  },
  {
    "label": "Iwo",
    "value": "Iwo",
    "state": "Osun",
    "lng": 4.251944120000076,
    "lat": 7.652536396000073
  },
  {
    "label": "Obokun",
    "value": "Obokun",
    "state": "Osun",
    "lng": 4.782589459000064,
    "lat": 7.879356273000042
  },
  {
    "label": "Odo-Otin",
    "value": "Odo-Otin",
    "state": "Osun",
    "lng": 4.792956210000057,
    "lat": 8.06654157500003
  },
  {
    "label": "Ola-oluwa",
    "value": "Ola-oluwa",
    "state": "Osun",
    "lng": 4.319902478000074,
    "lat": 7.678954005000037
  },
  {
    "label": "Olorunda",
    "value": "Olorunda",
    "state": "Osun",
    "lng": 4.556531417000031,
    "lat": 7.947974711000029
  },
  {
    "label": "Oriade",
    "value": "Oriade",
    "state": "Osun",
    "lng": 4.893228493000038,
    "lat": 7.730335228000058
  },
  {
    "label": "Orolu",
    "value": "Orolu",
    "state": "Osun",
    "lng": 4.543028381000056,
    "lat": 7.884988340000064
  },
  {
    "label": "Osogbo",
    "value": "Osogbo",
    "state": "Osun",
    "lng": 4.599284667000063,
    "lat": 7.801316332000056
  },
  {
    "label": "Akinyele",
    "value": "Akinyele",
    "state": "Oyo",
    "lng": 4.020828842000071,
    "lat": 7.678366419000042
  },
  {
    "label": "Atiba",
    "value": "Atiba",
    "state": "Oyo",
    "lng": 3.963522906000037,
    "lat": 8.614751883000054
  },
  {
    "label": "Atigbo",
    "value": "Atigbo",
    "state": "Oyo",
    "lng": 3.781291973000066,
    "lat": 8.45526398900006
  },
  {
    "label": "Egbeda",
    "value": "Egbeda",
    "state": "Oyo",
    "lng": 4.148307190000025,
    "lat": 7.458775323000054
  },
  {
    "label": "Ibadan North",
    "value": "Ibadan North",
    "state": "Oyo",
    "lng": 3.939787485000068,
    "lat": 7.429025787000057
  },
  {
    "label": "Ibadan North East",
    "value": "Ibadan North East",
    "state": "Oyo",
    "lng": 3.944995560000052,
    "lat": 7.404030245000058
  },
  {
    "label": "Ibadan North West",
    "value": "Ibadan North West",
    "state": "Oyo",
    "lng": 3.898402167000029,
    "lat": 7.379959911000071
  },
  {
    "label": "Ibadan South East",
    "value": "Ibadan South East",
    "state": "Oyo",
    "lng": 3.898389419000068,
    "lat": 7.378933325000048
  },
  {
    "label": "Ibadan South West",
    "value": "Ibadan South West",
    "state": "Oyo",
    "lng": 3.85632583000006,
    "lat": 7.40791783800006
  },
  {
    "label": "Ibarapa Central",
    "value": "Ibarapa Central",
    "state": "Oyo",
    "lng": 3.356237168000064,
    "lat": 7.593204428000035
  },
  {
    "label": "Ibarapa East",
    "value": "Ibarapa East",
    "state": "Oyo",
    "lng": 3.66449870100007,
    "lat": 7.74106443900007
  },
  {
    "label": "Ibarapa North",
    "value": "Ibarapa North",
    "state": "Oyo",
    "lng": 3.247025750000034,
    "lat": 7.809639420000053
  },
  {
    "label": "Ido",
    "value": "Ido",
    "state": "Oyo",
    "lng": 3.747347243000036,
    "lat": 7.693665834000058
  },
  {
    "label": "Irepo",
    "value": "Irepo",
    "state": "Oyo",
    "lng": 4.21046018800007,
    "lat": 8.970032953000043
  },
  {
    "label": "Iseyin",
    "value": "Iseyin",
    "state": "Oyo",
    "lng": 3.763361003000057,
    "lat": 8.206647858000053
  },
  {
    "label": "Itesiwaju",
    "value": "Itesiwaju",
    "state": "Oyo",
    "lng": 3.647887596000032,
    "lat": 8.336770869000077
  },
  {
    "label": "Iwajowa",
    "value": "Iwajowa",
    "state": "Oyo",
    "lng": 3.025564338000038,
    "lat": 8.219650587000046
  },
  {
    "label": "Kajola",
    "value": "Kajola",
    "state": "Oyo",
    "lng": 3.457087047000073,
    "lat": 8.04781726400006
  },
  {
    "label": "Lagelu",
    "value": "Lagelu",
    "state": "Oyo",
    "lng": 4.15892642600005,
    "lat": 7.529891559000021
  },
  {
    "label": "Ogbomosho North",
    "value": "Ogbomosho North",
    "state": "Oyo",
    "lng": 4.282382516000041,
    "lat": 8.083375868000076
  },
  {
    "label": "Ogbomosho South",
    "value": "Ogbomosho South",
    "state": "Oyo",
    "lng": 4.282382516000041,
    "lat": 8.083375868000076
  },
  {
    "label": "Olorunsogo",
    "value": "Olorunsogo",
    "state": "Oyo",
    "lng": 4.329013373000066,
    "lat": 8.989558892000048
  },
  {
    "label": "Oluyole",
    "value": "Oluyole",
    "state": "Oyo",
    "lng": 3.995383008000033,
    "lat": 7.125019771000041
  },
  {
    "label": "Ona-Ara",
    "value": "Ona-Ara",
    "state": "Oyo",
    "lng": 4.128886655000031,
    "lat": 7.310589725000057
  },
  {
    "label": "Orelope",
    "value": "Orelope",
    "state": "Oyo",
    "lng": 3.977229044000069,
    "lat": 8.87553951800004
  },
  {
    "label": "Oyo East",
    "value": "Oyo East",
    "state": "Oyo",
    "lng": 4.083780408000052,
    "lat": 7.943938165000077
  },
  {
    "label": "Oyo West",
    "value": "Oyo West",
    "state": "Oyo",
    "lng": 3.931859103000022,
    "lat": 7.851146652000068
  },
  {
    "label": "Saki East",
    "value": "Saki East",
    "state": "Oyo",
    "lng": 3.822780623000028,
    "lat": 8.596618544000023
  },
  {
    "label": "Saki West",
    "value": "Saki West",
    "state": "Oyo",
    "lng": 3.442421897000031,
    "lat": 8.600106118000042
  },
  {
    "label": "Surulere",
    "value": "Surulere",
    "state": "Oyo",
    "lng": 3.368344047000051,
    "lat": 6.518561859000044
  },
  {
    "label": "Barikin Ladi",
    "value": "Barikin Ladi",
    "state": "Plateau",
    "lng": 9.08714408800006,
    "lat": 9.698850660000062
  },
  {
    "label": "Bassa",
    "value": "Bassa",
    "state": "Plateau",
    "lng": 7.445786741000063,
    "lat": 8.044860924000034
  },
  {
    "label": "Bokkos",
    "value": "Bokkos",
    "state": "Plateau",
    "lng": 9.104999699000075,
    "lat": 9.071070407000036
  },
  {
    "label": "Jos East",
    "value": "Jos East",
    "state": "Plateau",
    "lng": 9.291556814000046,
    "lat": 9.903431671000021
  },
  {
    "label": "Jos North",
    "value": "Jos North",
    "state": "Plateau",
    "lng": 8.986306452000065,
    "lat": 10.010419813000055
  },
  {
    "label": "Jos South",
    "value": "Jos South",
    "state": "Plateau",
    "lng": 8.96429435400006,
    "lat": 9.851695796000058
  },
  {
    "label": "Kanam",
    "value": "Kanam",
    "state": "Plateau",
    "lng": 10.516327067000077,
    "lat": 9.510561109000037
  },
  {
    "label": "Kanke",
    "value": "Kanke",
    "state": "Plateau",
    "lng": 9.741759530000024,
    "lat": 9.534790736000048
  },
  {
    "label": "Langtang North",
    "value": "Langtang North",
    "state": "Plateau",
    "lng": 9.915121052000075,
    "lat": 9.210517043000038
  },
  {
    "label": "Langtang South",
    "value": "Langtang South",
    "state": "Plateau",
    "lng": 10.008015801000056,
    "lat": 8.553002418000062
  },
  {
    "label": "Mangu",
    "value": "Mangu",
    "state": "Plateau",
    "lng": 9.32211559600006,
    "lat": 9.580175173000043
  },
  {
    "label": "Mikang",
    "value": "Mikang",
    "state": "Plateau",
    "lng": 9.784290084000077,
    "lat": 8.893896875000053
  },
  {
    "label": "Pankshin",
    "value": "Pankshin",
    "state": "Plateau",
    "lng": 9.475710250000077,
    "lat": 9.474486996000053
  },
  {
    "label": "Riyom",
    "value": "Riyom",
    "state": "Plateau",
    "lng": 8.698367527000073,
    "lat": 9.733711633000041
  },
  {
    "label": "Shendam",
    "value": "Shendam",
    "state": "Plateau",
    "lng": 9.381306669000026,
    "lat": 9.097296562000054
  },
  {
    "label": "Wase",
    "value": "Wase",
    "state": "Plateau",
    "lng": 10.569179507000058,
    "lat": 9.399789704000057
  },
  {
    "label": "Ahoada East",
    "value": "Ahoada East",
    "state": "Rivers",
    "lng": 6.717530319000048,
    "lat": 5.182233936000046
  },
  {
    "label": "Ahoada West",
    "value": "Ahoada West",
    "state": "Rivers",
    "lng": 6.629775025000072,
    "lat": 5.190967988000068
  },
  {
    "label": "Akuku Toru",
    "value": "Akuku Toru",
    "state": "Rivers",
    "lng": 6.762456996000026,
    "lat": 4.760527133000039
  },
  {
    "label": "Andoni",
    "value": "Andoni",
    "state": "Rivers",
    "lng": 7.458186950000027,
    "lat": 4.571283486000027
  },
  {
    "label": "Asari-Toru",
    "value": "Asari-Toru",
    "state": "Rivers",
    "lng": 6.887269007000043,
    "lat": 4.797744733000059
  },
  {
    "label": "Degema",
    "value": "Degema",
    "state": "Rivers",
    "lng": 6.783440441000039,
    "lat": 4.802381327000035
  },
  {
    "label": "Eleme",
    "value": "Eleme",
    "state": "Rivers",
    "lng": 7.18175231500004,
    "lat": 4.838303095000072
  },
  {
    "label": "Emohua",
    "value": "Emohua",
    "state": "Rivers",
    "lng": 6.794449860000043,
    "lat": 5.27726984100002
  },
  {
    "label": "Etche",
    "value": "Etche",
    "state": "Rivers",
    "lng": 7.242135034000057,
    "lat": 5.195867014000044
  },
  {
    "label": "Gokana",
    "value": "Gokana",
    "state": "Rivers",
    "lng": 7.31535486000007,
    "lat": 4.597617165000031
  },
  {
    "label": "Ikwerre",
    "value": "Ikwerre",
    "state": "Rivers",
    "lng": 6.967688246000023,
    "lat": 5.234678875000043
  },
  {
    "label": "Khana",
    "value": "Khana",
    "state": "Rivers",
    "lng": 7.501562138000054,
    "lat": 4.807817927000031
  },
  {
    "label": "Okrika",
    "value": "Okrika",
    "state": "Rivers",
    "lng": 7.175617120000027,
    "lat": 4.735705880000069
  },
  {
    "label": "Omumma",
    "value": "Omumma",
    "state": "Rivers",
    "lng": 7.270400856000037,
    "lat": 5.102309113000047
  },
  {
    "label": "Oyigbo",
    "value": "Oyigbo",
    "state": "Rivers",
    "lng": 7.319818782000027,
    "lat": 4.879619170000069
  },
  {
    "label": "Port-Harcourt",
    "value": "Port-Harcourt",
    "state": "Rivers",
    "lng": 7.076556322000044,
    "lat": 4.813961973000062
  },
  {
    "label": "Tai",
    "value": "Tai",
    "state": "Rivers",
    "lng": 7.321206999000026,
    "lat": 4.78311923900003
  },
  {
    "label": "Binji",
    "value": "Binji",
    "state": "Sokoto",
    "lng": 5.058201634000056,
    "lat": 13.166690366000068
  },
  {
    "label": "Bodinga",
    "value": "Bodinga",
    "state": "Sokoto",
    "lng": 5.190436854000041,
    "lat": 12.946481643000027
  },
  {
    "label": "Dange-Shuni",
    "value": "Dange-Shuni",
    "state": "Sokoto",
    "lng": 5.493614525000055,
    "lat": 12.967807107000056
  },
  {
    "label": "Gada",
    "value": "Gada",
    "state": "Sokoto",
    "lng": 6.04369057100007,
    "lat": 13.697195616000045
  },
  {
    "label": "Goronyo",
    "value": "Goronyo",
    "state": "Sokoto",
    "lng": 5.915075434000073,
    "lat": 13.573113973000034
  },
  {
    "label": "Gudu",
    "value": "Gudu",
    "state": "Sokoto",
    "lng": 4.720144727000047,
    "lat": 13.302420643000062
  },
  {
    "label": "Gwadabawa",
    "value": "Gwadabawa",
    "state": "Sokoto",
    "lng": 5.528517328000021,
    "lat": 13.557349957000042
  },
  {
    "label": "Illela",
    "value": "Illela",
    "state": "Sokoto",
    "lng": 5.528517328000021,
    "lat": 13.557349957000042
  },
  {
    "label": "Isa",
    "value": "Isa",
    "state": "Sokoto",
    "lng": 6.666914075000022,
    "lat": 13.362653644000034
  },
  {
    "label": "Kebbe",
    "value": "Kebbe",
    "state": "Sokoto",
    "lng": 4.942946371000062,
    "lat": 11.732523763000074
  },
  {
    "label": "Kware",
    "value": "Kware",
    "state": "Sokoto",
    "lng": 5.310410667000042,
    "lat": 13.214572198000042
  },
  {
    "label": "Rabah",
    "value": "Rabah",
    "state": "Sokoto",
    "lng": 5.719407837000063,
    "lat": 13.243125108000072
  },
  {
    "label": "Sabon Birni",
    "value": "Sabon Birni",
    "state": "Sokoto",
    "lng": 6.666914075000022,
    "lat": 13.362653644000034
  },
  {
    "label": "Shagari",
    "value": "Shagari",
    "state": "Sokoto",
    "lng": 5.260876050000036,
    "lat": 12.61143743200006
  },
  {
    "label": "Silame",
    "value": "Silame",
    "state": "Sokoto",
    "lng": 4.963443205000033,
    "lat": 13.082524981000063
  },
  {
    "label": "Sokoto North",
    "value": "Sokoto North",
    "state": "Sokoto",
    "lng": 5.248886517000074,
    "lat": 13.101765425000053
  },
  {
    "label": "Sokoto South",
    "value": "Sokoto South",
    "state": "Sokoto",
    "lng": 5.283259827000052,
    "lat": 13.028566817000069
  },
  {
    "label": "Tambuwal",
    "value": "Tambuwal",
    "state": "Sokoto",
    "lng": 4.812808526000026,
    "lat": 12.756440762000068
  },
  {
    "label": "Tangaza",
    "value": "Tangaza",
    "state": "Sokoto",
    "lng": 5.155894705000037,
    "lat": 13.745788920000052
  },
  {
    "label": "Tureta",
    "value": "Tureta",
    "state": "Sokoto",
    "lng": 5.685791565000045,
    "lat": 12.713689971000065
  },
  {
    "label": "Wamako",
    "value": "Wamako",
    "state": "Sokoto",
    "lng": 5.248886517000074,
    "lat": 13.101765425000053
  },
  {
    "label": "Wurno",
    "value": "Wurno",
    "state": "Sokoto",
    "lng": 5.719407837000063,
    "lat": 13.243125108000072
  },
  {
    "label": "Yabo",
    "value": "Yabo",
    "state": "Sokoto",
    "lng": 5.045446937000065,
    "lat": 12.929120860000069
  },
  {
    "label": "Ardo-Kola",
    "value": "Ardo-Kola",
    "state": "Taraba",
    "lng": 11.218346836000023,
    "lat": 9.015662891000034
  },
  {
    "label": "Bali",
    "value": "Bali",
    "state": "Taraba",
    "lng": 11.779806061000045,
    "lat": 8.609372136000047
  },
  {
    "label": "Donga",
    "value": "Donga",
    "state": "Taraba",
    "lng": 10.342407441000034,
    "lat": 7.959485654000048
  },
  {
    "label": "Gashaka",
    "value": "Gashaka",
    "state": "Taraba",
    "lng": 11.341521140000054,
    "lat": 8.01866827400005
  },
  {
    "label": "Gassol",
    "value": "Gassol",
    "state": "Taraba",
    "lng": 11.110397297000077,
    "lat": 8.631417343000066
  },
  {
    "label": "Ibi",
    "value": "Ibi",
    "state": "Taraba",
    "lng": 10.41248717700006,
    "lat": 8.677933689000042
  },
  {
    "label": "Jalingo",
    "value": "Jalingo",
    "state": "Taraba",
    "lng": 11.321335844000032,
    "lat": 8.985117960000025
  },
  {
    "label": "Karim-Lamido",
    "value": "Karim-Lamido",
    "state": "Taraba",
    "lng": 10.97489368600003,
    "lat": 9.592890513000043
  },
  {
    "label": "Kurmi",
    "value": "Kurmi",
    "state": "Taraba",
    "lng": 10.978006624000045,
    "lat": 7.309875612000042
  },
  {
    "label": "Lau",
    "value": "Lau",
    "state": "Taraba",
    "lng": 11.53452853300007,
    "lat": 9.403206569000076
  },
  {
    "label": "Sardauna",
    "value": "Sardauna",
    "state": "Taraba",
    "lng": 11.66074470500007,
    "lat": 6.989963120000027
  },
  {
    "label": "Takum",
    "value": "Takum",
    "state": "Taraba",
    "lng": 10.242503888000044,
    "lat": 7.422845466000069
  },
  {
    "label": "Ussa",
    "value": "Ussa",
    "state": "Taraba",
    "lng": 10.26748010700004,
    "lat": 7.278253136000046
  },
  {
    "label": "Wukari",
    "value": "Wukari",
    "state": "Taraba",
    "lng": 10.32969662000005,
    "lat": 8.08175097700007
  },
  {
    "label": "Yorro",
    "value": "Yorro",
    "state": "Taraba",
    "lng": 11.698466326000073,
    "lat": 9.14384005900007
  },
  {
    "label": "Zing",
    "value": "Zing",
    "state": "Taraba",
    "lng": 11.78945542100007,
    "lat": 8.643571977000022
  },
  {
    "label": "Bade",
    "value": "Bade",
    "state": "Yobe",
    "lng": 11.05663904000005,
    "lat": 12.878349223000043
  },
  {
    "label": "Bursari",
    "value": "Bursari",
    "state": "Yobe",
    "lng": 11.723132256000042,
    "lat": 12.859367313000064
  },
  {
    "label": "Damaturu",
    "value": "Damaturu",
    "state": "Yobe",
    "lng": 12.255372213000044,
    "lat": 12.034514107000064
  },
  {
    "label": "Fika",
    "value": "Fika",
    "state": "Yobe",
    "lng": 11.267074001000026,
    "lat": 11.662743583000065
  },
  {
    "label": "Fune",
    "value": "Fune",
    "state": "Yobe",
    "lng": 11.732767984000077,
    "lat": 11.974364010000045
  },
  {
    "label": "Geidam",
    "value": "Geidam",
    "state": "Yobe",
    "lng": 12.477544796000075,
    "lat": 12.717757619000054
  },
  {
    "label": "Gujba",
    "value": "Gujba",
    "state": "Yobe",
    "lng": 12.301113649000058,
    "lat": 11.644909419000044
  },
  {
    "label": "Gulani",
    "value": "Gulani",
    "state": "Yobe",
    "lng": 12.007828950000032,
    "lat": 11.03395106000005
  },
  {
    "label": "Jakusko",
    "value": "Jakusko",
    "state": "Yobe",
    "lng": 11.047947220000026,
    "lat": 12.74596804500004
  },
  {
    "label": "Karasuwa",
    "value": "Karasuwa",
    "state": "Yobe",
    "lng": 11.167745678000074,
    "lat": 12.948378938000076
  },
  {
    "label": "Machina",
    "value": "Machina",
    "state": "Yobe",
    "lng": 10.281180660000075,
    "lat": 13.270557309000026
  },
  {
    "label": "Nangere",
    "value": "Nangere",
    "state": "Yobe",
    "lng": 11.212938139000073,
    "lat": 11.821884738000051
  },
  {
    "label": "Nguru",
    "value": "Nguru",
    "state": "Yobe",
    "lng": 10.492227610000043,
    "lat": 13.014889654000058
  },
  {
    "label": "Potiskum",
    "value": "Potiskum",
    "state": "Yobe",
    "lng": 11.267074001000026,
    "lat": 11.662743583000065
  },
  {
    "label": "Tarmua",
    "value": "Tarmua",
    "state": "Yobe",
    "lng": 11.735203106000029,
    "lat": 12.443159858000058
  },
  {
    "label": "Yunusari",
    "value": "Yunusari",
    "state": "Yobe",
    "lng": 12.394129994000025,
    "lat": 13.07709976800004
  },
  {
    "label": "Yusufari",
    "value": "Yusufari",
    "state": "Yobe",
    "lng": 11.391300476000026,
    "lat": 12.988679993000062
  },
  {
    "label": "Anka",
    "value": "Anka",
    "state": "Zamfara",
    "lng": 6.131456499000024,
    "lat": 12.134790580000072
  },
  {
    "label": "Bakura",
    "value": "Bakura",
    "state": "Zamfara",
    "lng": 6.045502086000056,
    "lat": 12.754116163000049
  },
  {
    "label": "Birnin Magaji",
    "value": "Birnin Magaji",
    "state": "Zamfara",
    "lng": 7.051230394000072,
    "lat": 12.589386940000054
  },
  {
    "label": "Bukkuyum",
    "value": "Bukkuyum",
    "state": "Zamfara",
    "lng": 5.730214786000033,
    "lat": 12.286021380000022
  },
  {
    "label": "Bungudu",
    "value": "Bungudu",
    "state": "Zamfara",
    "lng": 6.833372429000065,
    "lat": 12.280619652000041
  },
  {
    "label": "Gummi",
    "value": "Gummi",
    "state": "Zamfara",
    "lng": 5.292940207000072,
    "lat": 12.27855138600006
  },
  {
    "label": "Gusau",
    "value": "Gusau",
    "state": "Zamfara",
    "lng": 7.104723569000043,
    "lat": 12.295072580000067
  },
  {
    "label": "Kaura Namoda",
    "value": "Kaura Namoda",
    "state": "Zamfara",
    "lng": 6.72568681100006,
    "lat": 12.589977486000066
  },
  {
    "label": "Maru",
    "value": "Maru",
    "state": "Zamfara",
    "lng": 6.423337504000074,
    "lat": 12.360418159000062
  },
  {
    "label": "Shinkafi",
    "value": "Shinkafi",
    "state": "Zamfara",
    "lng": 6.655344200000059,
    "lat": 13.077429906000077
  },
  {
    "label": "Talata Mafara",
    "value": "Talata Mafara",
    "state": "Zamfara",
    "lng": 6.302344821000077,
    "lat": 12.424840386000028
  },
  {
    "label": "Tsafe",
    "value": "Tsafe",
    "state": "Zamfara",
    "lng": 7.115156054000067,
    "lat": 12.090473227000075
  },
  {
    "label": "Zurmi",
    "value": "Zurmi",
    "state": "Zamfara",
    "lng": 7.047684777000029,
    "lat": 12.999111687000038
  }
]
